id,created_at,updated_at,deleted_at,name,longitude,latitude,addresse,district_id
1,,,,PALAIS DES SPORTS,-4.00545,5.29809,,10
4,,,,DISTRICT SANITAIRE YAMOUSSOUKRO,-5.277214,6.818035,,23
5,,,,CHU BOUAKÉ,-5.028409,7.698127,,38
6,,,,KORHOGO,-5.614014,9.470736,,94
7,,,,SAN PEDRO,-6.652625,4.765544,,98
8,,,,ABOISSO,-3.2142,5.467928,,100
12,,,,ABENGOUROU,-3.46707,6.709428,,68
13,,,,CENTRE MAGISTRAT,-3.963065,5.332067,,5
15,,,,TEST CENTRE,-4.093094,5.319167,,1
16,,,,CHU COCODY,-3.994388,5.342909,,7
17,,,,CHU ANGRE,-3.98424,5.403056,,7
18,,,,HG BINGERVILLE,-3.884255,5.361869,,7
19,,,,CSU ANGRÉ,-3.98458,5.405168,,7
20,,,,CSR ELOKA,-3.745618,5.299,,7
21,,,,CSU COM PALMERAIE,-3.962429,5.363287,,7
22,,,,CSU COLOMBIE,-4.006021,5.374887,,7
23,,,,CSU BLOKOSS,-4.001548,5.324687,,7
24,,,,CSU GBAGBA,-3.88769,5.349698,,7
25,,,,CSU M’BADON,-3.934896,5.328412,,7
26,,,,SIEGE DU DISTRICT (DISPENSAIRE URBAIN DE COCODY),-4.004705,5.338784,,7
28,,,,CSU AKWABA,-3.891011,5.240345,,9
29,,,,HG PORT BOUET,-3.962178,5.262608,,9
30,,,,POLYCLINIQUE CROISSANT ROUGE,-3.917469,5.243115,,9
31,,,,CSU COM GONZAGUEVILLE,-3.891183,5.242982,,9
32,,,,FSU COM VRIDI CANAL,-3.996156,5.255196,,9
33,,,,CSU COM VRIDI 3L,-3.994938,5.274764,,9
34,,,,HOPITAL VRIDI CITÉ,-4.004714,5.257,,9
35,,,,CSU COM ZOE BRUNO,-3.950564,5.283312,,8
36,,,,CSU COM DIVO,-3.950728,5.306033,,8
37,,,,FSSU COM PANGOLIN,-3.946388,5.30032,,8
38,,,,HÔPITAL GENERAL DE KOUMASSI,-3.968896,5.287318,,8
39,,,,CSU BOKABO,-4.034203,5.426069,,4
40,,,,CSUCOM ASSOMIN,-4.05574,5.438409,,4
41,,,,ELRAPHA,-4.019843,5.404176,,4
42,,,,FSUCOM SAGBE,-4.032059,5.416498,,4
43,,,,HG ABOBO SUD,-4.01642,5.4239,,4
44,,,,CHU YOPOUGON,-4.089852,5.357625,,2
45,,,,CSU KENNEDY,-4.000308,5.423863,,3
46,,,,FSU COM WASSAKARA,-4.068365,5.353106,,1
47,,,,CHR ABOBO,-4.008027,5.443648,,3
48,,,,FSU COM ANDOKOI,-4.068862,5.362641,,1
49,,,,ANTENNE INHP ABOBO BAOULÉ,-3.989863,5.423044,,3
51,,,,FSUCOM KOUTÉ,-4.075163,5.321534,,1
52,,,,FSU COM TOITS ROUGE,-4.056356,5.331481,,1
53,,,,CSU SANTÉ,-4.044233,5.309302,,1
54,,,,HG TREICHVILLE,-4.018056,5.308539,,10
55,,,,INHP YOPOUGON,-4.057088,5.32574,,1
56,,,,HG MARCORY,-3.98341,5.301532,,10
59,,,,CSU MACA,-4.076597,5.389096,,1
60,,,,SIEGE DU DISTRICT,-4.015448,5.307518,,10
61,,,,INHP TREICHVILLE,-4.004858,5.294658,,10
63,,,,FSU PMI ATTECOUBE,-4.03298,5.349759,,6
64,,,,PARC DES SPORTS,-4.005404,5.298293,,10
65,,,,CSU COM WILLIASVILLE,-4.024718,5.373275,,6
66,,,,FSU ABOBO DOUMÉ,-4.040742,5.309976,,6
67,,,,MATERNITÉ WILLIASVILLE,-4.023133,5.367027,,6
68,,,,HÔPITAL DES FONCTIONNAIRES,-4.02208,5.323945,,6
69,,,,HÔPITAL GÉNÉRAL D’ADJAMÉ,-4.024727,5.348712,,6
70,,,,HOPITAL GENERAL ANYAMA,-4.045935,5.500248,,5
71,,,,CSU BROFODOUMÉ,-3.930774,5.519101,,5
72,,,,CENTRE CONFESSIONNEL SŒUR CATHERINE PORT BOUET 2,-4.091423,5.351448,,2
73,,,,FSU COM KOWET,-4.057067,5.325667,,1
74,,,,ANTENNE INHP PORT BOUET,-3.946564,5.248759,,9
75,,,,CSU ANONKOI,-4.049928,5.424231,,5
76,,,,CSU ANYAMA DEBARCADAIRE,-3.923051,5.435059,,5
77,,,,CSU ATTINGUIÉ,-4.184461,5.46703,,5
78,,,,CSU CISSÉ,-4.051045,5.482801,,5
79,,,,CSU ATTIEKOUA,-3.968719,5.54173,,5
80,,,,DISPENSAIRE URBAIN,-4.049137,5.499275,,5
81,,,,SSU ANYAMA LYCÉE 1,-4.064127,5.49434,,5
82,,,,FSU ABOBO AVOCATIER,-4.031332,5.440683,,3
83,,,,CSU COM AGOUETO,-4.054601,5.444884,,4
84,,,,FSCOM ANONKOUA KOUTE,-4.046673,5.435201,,4
85,,,,CSU SPHINX,-4.068339,5.443504,,4
86,,,,CAMP DE GENDARMERIE AGBAN,-4.00964,5.36115,,6
87,,,,CSU ABIDJAN SANTAI,-4.035957,5.314469,,6
89,,,,FSU COM KOUMASSI CAMPEMENT,-3.942292,5.302392,,8
90,,,,CSCOM KOUMASSI DIVO,-3.950898,5.306391,,8
91,,,,CHU INHP COCODY BINGERVILLE,-3.909567,5.370396,,7
92,,,,ONG CIAK,-3.952203,5.296636,,8
93,,,,CMS ENFANT JESUS,-3.948185,5.309721,,8
94,,,,SDTM,-4.021037,5.306473,,10
95,,,,CI-ENERGIE,-4.018738,5.317647,,6
96,,,,SCB PLATEAU,-4.022881,5.338593,,6
97,,,,SOLIBRA,-3.995326,5.299636,,10
98,,,,AMBASSADE DES USA,-3.97605,5.335075,,7
99,,,,PLATEAU PRÉSIDENCE,-4.022801,5.317241,,6
100,,,,FSU PLATEAU,-4.026851,5.327955,,6
101,,,,SIÈGE CIE TREICHVILLE,-4.011069,5.311255,,10
102,,,,MARCHE SICOGI,-4.078066,5.339322,,1
103,,,,FIGGAYO,-4.07286,5.350293,,1
104,,,,MACCA INTERIEUR,-4.076275,5.390734,,1
105,,,,MOSQUEE COSIM ABOBO,-4.011785,5.422525,,3
106,,,,DEPOT 9,-4.035309,5.439076,,3
107,,,,CSU COM ABOBO KENNEDY,-4.000236,5.423748,,3
108,,,,ETS SAINTE FOI,-4.023059,5.444978,,3
109,,,,POLY CINIQUE CENTRAL,-4.006718,5.411148,,3
110,,,,CSS ANGE GARDIEN,-4.023655,5.451897,,3
111,,,,CSA ESC 1/3 ABOBO,-4.015749,5.441762,,3
112,,,,PK18,-4.060465,5.44639,,3
113,,,,MOSQUEE CHU,-4.001,5.292,,10
115,,,,CSA ESC 4/1 KOUMASSI,-3.953592,5.302486,,8
116,,,,BCEAO,-4.015039,5.321939,,6
117,,,,NSIA VIE ASSURANCE,-4.016247,5.318147,,6
118,,,,CSU COM ALIODAN,-3.979169,5.305845,,10
119,,,,SIÈGE RHDP,-4.015628,5.438639,,3
120,,,,GRAND MARCHÉ DE DOKUI,-4,5.396302,,3
121,,,,CENTRE ANTI-TUBERCULEUX ABOBO,-4.015347,5.437026,,3
122,,,,PHARMACIE RACINE,-4.00986,5.41283,,3
123,,,,MOSQUEE AL KABIR,-4.018231,5.439228,,3
124,,,,MOSQUEE BAYO,-4.013758,5.43501,,3
125,,,,MOSQUEE SODEPALM,-4.004947,5.411969,,3
126,,,,GROUPE SCOLAIRE ELITE,-4.01903,5.427411,,3
127,,,,CSU COM ABOBO BC,-4.017236,5.44503,,3
128,,,,MOSQUEE TAWAKALTOU,-4.036262,5.430395,,3
129,,,,POLYCLINIQUE INDENIE,-4.019355,5.33839,,6
130,,,,PRIMATURE,-4.022129,5.320069,,6
131,,,,MARCHE DE AKEIKOI,-4.013815,5.452271,,3
132,,,,CSU COM ABOBO BANCO,-4.01001,5.409852,,3
133,,,,MOSQUEE ACID,-4.027267,5.442847,,3
136,,,,CSR ADJAHUI,-3.943549,5.274042,,9
137,,,,VRIDI COCOTIER,-3.976821,5.261712,,9
2748,,,,CSR KONANKRO SAKASSOU,0,0,,41
139,,,,FSU-COM LES HORTENSIAS,-3.996268,5.255534,,9
140,,,,PORT-BOUET TERRAIN PETIT BASSAM,-3.993167,5.255272,,9
141,,,,LYCEE MODERNE ABOBO,-4.012,5.428,,3
142,,,,TERMINUS 27,-4.089519,5.316331,,2
143,,,,PAROISSE SAINTE FRANCOISE,-4.096632,5.383585,,2
144,,,,MOSQUEE AVENUE 8,-4.010966,5.30743,,10
145,,,,CLINIQUE FARAH,-3.986166,5.311052,,10
146,,,,FSU COM PORT BOUET 2,-4.093078,5.347185,,2
147,,,,CSU ASAPSU,-4.050038,5.424343,,4
148,,,,MOSQUEE KOUDOUSS,-4.087633,5.346675,,2
149,,,,BANCO 2,-4.08231,6.355684,,2
150,,,,BANCO 2 ALLOCODROME,-4.078724,5.352738,,2
151,,,,BONIKRO,-4.107396,5.351223,,2
152,,,,FSU COM GESCO,-4.101,5.37,,2
153,,,,NESTLE,-4.084754,5.372841,,2
154,,,,V1,-4.080688,5.359883,,2
155,,,,ZONE INDUSTRIELLE,-4.081731,5.370114,,2
156,,,,CARGILL,-4.095749,5.37778,,9
157,,,,KASSEMBLE,-4.213477,5.314169,,2
158,,,,CITE VERTE,-4.066191,5.340571,,2
159,,,,SSSU TREICHVILLE,-4.001306,5.307243,,10
160,,,,CENTRE ANTI TUBERCULEUX DE TREICHVILLE,-4.001,5.299658,,10
161,,,,TOMACI SDTM,-4.005939,5.278932,,10
162,,,,MOSQUEE MADINA,-3.972684,5.301132,,10
163,,,,MOSQUEE DOUKOURE,-4.070358,5.367477,,1
164,,,,PLACE CP1,-4.070952,5.341571,,1
165,,,,MOSQUEE INACHEVEE,-4.011812,5.422493,,4
166,,,,ADJAME MAIRIE,-4.026398,5.342873,,6
167,,,,EMAT AKOUEDO,-3.948431,5.354052,,7
168,,,,LYCEE TECHNIQUE,-4.004521,5.372971,,7
169,,,,GSPM INDENIE,-4.019614,5.341629,,7
170,,,,NOUVEAU CAMP AKOUEDO,-3.944629,5.371614,,7
171,,,,EMPT BINGERVILLE,-3.892115,5.359631,,7
172,,,,MAIRIE DE ABOBO,-4.016254,5.420694,,4
173,,,,GAGNOA GARE,-4.019567,5.42621,,4
174,,,,ABOBO SAPHIR,-4.054985,5.443882,,4
175,,,,MARCHE ABOBO,-4.015764,5.425279,,4
176,,,,MARCHE PK18 ASSOMIN,-4.055742,5.428256,,4
177,,,,SAINT JOSEPH,-4.018013,5.419215,,4
178,,,,MARCHE POULET,-4.018579,5.42469,,4
179,,,,ECOLE JAPONAISE,-4.047873,5.444468,,4
181,,,,MOSQUEE NOUR,-4.009679,5.408038,,4
182,,,,ECOLE DE GENDARMERIE DE ABIDJAN (EGA),-3.995,5.349721,,7
183,,,,MOSQUEE SONTA,-4.05457,5.449442,,4
184,,,,MOSQUEE BARD,-4.058199,5.447951,,4
185,,,,ANONKOUA SODECI,-4.049489,5.42428,,4
186,,,,GRACE JEANNINE,-4.079503,5.443329,,4
187,,,,MOSQUEE RACHID,-3.998062,5.418382,,4
188,,,,SMI ABOBO,-3.993471,5.418244,,4
189,,,,MOSQUEE ZEINAB BERTHE,-4.002876,5.414606,,4
190,,,,MOSQUEE ANTENNE,-4.001226,5.416041,,4
191,,,,V2 N DOTRE,-4.078439,5.469504,,4
192,,,,N DOTRE,-4.069529,5.443437,,4
193,,,,MAIRIE D ANYAMA,-4.053885,5.507033,,5
194,,,,GARE DE TRAIN,-4.055156,5.495951,,5
195,,,,CM SOUTRA,-4.022162,5.411979,,4
3234,,,,CSU SRAN BONDOSSOU,0,0,,41
197,,,,CENTRE SOCIAL ANYAMA,-4.050051,5.494195,,5
198,,,,BEATITUDE ABOBO,-3.993866,5.416865,,4
199,,,,RAIL ANYAMA,-4.05868,5.495878,,5
200,,,,SSSU 2 AGBEKOI,-4.015964,5.438719,,3
201,,,,ROTARI AGBEKOI,-4.009325,5.427257,,3
202,,,,FORCES SPECIALES ADIAKE,-3.299501,5.280032,,7
203,,,,ECOLE DE GENDARMERIE TOROGUIE (EGT),-6.464999,6.948951,,7
204,,,,2EME BATAILLON PROJECTABLE,-4.053337,5.424487,,7
205,,,,FORCES SPECIALE N DOTRE,-4.053002,5.424961,,7
206,,,,GSPR COCODY,-3.994978,5.350287,,7
207,,,,FORCES SPECIALES COCODY,-3.995067,5.350557,,7
208,,,,ESCADRON 2 YOPOUGON,-4.055017,5.326646,,1
209,,,,CAPH CI ANONKOIA KOUTE,-4.04882,5.432994,,4
211,,,,ESPACE DE JEUX EMCC,-3.969424,5.288645,,8
212,,,,THOMASSET,-4.074218,5.579677,,5
215,,,,CAMP MILITAIRE (UCS),-4.061094,5.51339,,5
216,,,,MARCHE BOCABO,-4.033636,5.414749,,4
217,,,,COQIVOIRE ABOBO,-4.048394,5.444855,,3
218,,,,PALMERAIE MOSQUEE BARO,-4.015266,5.306509,,4
219,,,,PHARMACIE ACTUELLE,-3.994813,5.413715,,3
220,,,,OCPV ABOBO,-4.044496,5.446049,,3
221,,,,PAROISSE SAINT MARC,-4.00749,5.451608,,3
222,,,,TERRAIN BIABOU,-3.98438,5.439825,,3
223,,,,GRAND COMMANDEMENT,-4.053058,5.506093,,5
224,,,,MOSQUEE GABON PK18,-4.048036,5.442267,,3
225,,,,ORANGE TREICHVILLE,-4.012507,5.305612,,10
2553,,2022-09-02 15:41:40.307294 +00:00,,DISTRICT SANITAIRE BOTRO,-5.3065506278813315,7.852888350223842,,40
227,,,,PISCINE D ETAT,-4.00092,5.308628,,10
228,,,,ONG ACID,-3.989164,5.423104,,3
229,,,,MOSQUEE AVENUE 24,-4.004088,5.302324,,10
230,,,,MOSQUEE WILLIAMSVILLE,-4.020635,5.364925,,6
231,,,,MOSQUEE HAMZA,-4.015266,5.306509,,10
232,,,,ÉCOLE DE POLICE,-3.989688,5.351634,,7
233,,,,TERRAIN PK18,-4.05162,5.449834,,3
234,,,,MOSSIKRO,-4.045036,5.34999,,6
235,,,,CIE PORT,-3.99409,5.290565,,10
236,,,,MOSQUEE AVENUE 21,-4.006426,5.303065,,10
237,,,,SEMPA,-4.016018,5.29986,,10
238,,,,KOKOUA,-4.015266,5.306509,,10
239,,,,USAC,-4.004022,5.289928,,10
240,,,,SERVICE DES MALADIES INFECTIEUSES ET TROPICALES (SMIT),-4.004888,5.29072,,10
241,,,,VRIDI POSTE,-3.984427,5.263914,,10
242,,,,ASAPSU,-3.964844,5.310722,,10
243,,,,DECO PLATEAU,-4.021248,5.323791,,6
244,,,,MOSQUEE SAINTE FOI,-4.024913,5.442752,,3
245,,,,POLYCLINIQUE GMP PLATEAU,-4.013906,5.320624,,6
247,,,,MAIRIE DE COCODY,-4.003336,5.332716,,7
248,,,,DISPENSAIRE MUNICIPAL M BADON,-3.934909,5.331216,,7
250,,,,COCODY 7ÈME TRANCHE,-3.984603,5.396099,,7
252,,,,CENTRE ANTI TUBERCULEUX D ADJAME,-4.024638,5.341878,,6
253,,,,CENTRE DE SANTE HKB BLOCKHAUSS,-4.001646,5.324639,,7
254,,,,CENTRE MEDICAL NIMATOULLAH,-3.993958,5.398804,,7
255,,,,LMTV,-3.993626,5.365057,,7
256,,,,ABOCATIER DADIER,-4.037077,5.435398,,4
259,,,,GARE YAYA FOFANA,-4.975253,5.293909,,8
260,,,,PLACE INCHALLA,-3.955406,5.299133,,8
261,,,,FSU COM ADIOPODOUME,-4.132676,5.337775,,2
262,,,,CLINIQUE MÉDICALE LE GRAND CENTRE,-4.087621,5.336875,,2
263,,,,CEPREF,-4.079745,5.341965,,2
264,,,,CLINIQUE MÉDICALE JANE LEORA,-4.097217,5.350962,,2
269,,,,CSA GARDE REPUBLICAINE TREICHVILLE,-4.013547,5.310956,,10
270,,,,GROUPEMENT MINISTÉRIEL DES MOYENS GÉNÉRAUX,-4.023992,5.337881,,6
274,,,,MARCHE FORUM,-4.027254,5.345474,,6
276,,,,CSR SONGON AGBAN,-4.256388,5.319262,,2
286,,,,MARCHE PORT BOUET,-3.963854,5.258112,,9
287,,,,CSU GENIE 2000,-3.936183,5.373326,,7
289,,,,DREN ABIDJAN 3,-4.103496,5.352389,,1
291,,,,MAIRIE PORT BOUET,-3.965037,5.259592,,9
292,,,,ABATTOIR DE PORT BOUET,-3.968153,5.260884,,9
294,,,,INHP ABOBO,-3.989863,5.423044,,3
295,,,,CSU ALLOSO,-3.581124,5.622758,,75
296,,,,DISTRICT SANITAIRE ALEPE,-3.663391,5.501932,,75
297,,,,CSU GRAND ALEPE,-3.762538,5.476781,,75
298,,,,CHEZ LE CHEF,-3.580771,5.623431,,75
300,,,,CSR MONGA (ALEPE),-3.661509,5.478433,,75
301,,,,CSR MONTEZO FOYER,-3.740002,5.483427,,75
302,,,,DISPENSAIRE DE KOSSANDJI,-3.628288,5.812731,,75
303,,,,AKOUPE,-3.746149,5.379059,,75
304,,,,CSU DANGUIRA,-3.767783,5.670648,,75
305,,,,ABOISSO COMOE,-3.767783,5.670648,,75
307,,,,HÔPITAL D AFFERY,-3.948766,6.320424,,74
308,,,,LYCÉE MUNICIPAL D AFFERY,-3.961425,6.311235,,74
309,,,,CHEZ L IMAM (ALEPE),-3.662139,5.499845,,75
271,,2022-08-16 10:48:17.400603 +00:00,,BASE NAVALE DE LOCODJRO,-4.039791,5.326482,,7
310,,,,STATION (AKOUPE),-3.889019,6.396116,,74
311,,,,DISTRICT SANITAIRE D AKOUPE,-3.880715,6.388034,,74
312,,,,CMS BANA COMOE,-3.889116,6.387044,,74
313,,,,CENTRE DE SANTÉ DE AKOUPE,-3.884678,6.381212,,74
315,,,,DAGUIKOI,-3.851467,5.520009,,75
316,,,,ASSIKOI (ALEPE),-3.616791,5.564813,,75
317,,,,CENTRE DE SANTÉ AHOUTOUE,-3.804649,5.475941,,75
318,,,,PLACE PUBLIQUE (ALEPE),-3.666879,5.502115,,75
319,,,,SORIBADOUGOU (AKOUPE),-3.882799,6.382126,,74
320,,,,CSR BONAHOUIN,-3.761472,6.564956,,74
321,,,,GROUPE SCOLAIRE AFFERY PLATEAU,-3.954822,6.31849,,74
323,,,,HOPITAL GENERAL ADZOPE,-3.86189,6.106988,,73
325,,,,CSR BONAHOUIN (AKOUPE),-3.762139,6.563934,,74
326,,,,CSU BECOUEFIN (AKOUPE),-3.843698,6.479083,,74
327,,,,HOPITAL GENRAL DE YAKKASSE ATTOBROU,-3.649768,6.192046,,76
328,,,,DIOULAKRO (AFFERY),-3.949318,6.319918,,74
329,,,,CSU ABONGOUA (YAKASSE-ATTOBROU),-3.543397,6.278026,,76
330,,,,DIOULAKRO (YAKASSE ATTOBROU),-3.836595,6.156749,,76
331,,,,CSU BIEBY,-3.636481,6.078563,,76
332,,,,CSU ASSIKOI,-3.616791,5.564813,,73
333,,,,CHEZ ASC,-3.66033,5.500567,,75
335,,,,DR ADJAME (YAKASSE ATTOBROU),-3.517288,6.276153,,76
336,,,,CSU BECEDI BRIGNAN,-4.01343,5.912073,,73
337,,,,M BASSO,-3.470691,6.300779,,76
338,,,,BAOULEKRO (YAKASE ATTOBROU),-4.032333,6.195526,,76
339,,,,YAPOKOI (YAKASSE ATTOBROU),-3.692343,5.766683,,76
340,,,,PLACE PUBLIQUE (YAKASSE ATTOBROU),-3.649456,6.182918,,76
341,,,,DR AHUIKOI (YAKASSE ATTOBROU),-3.719825,6.166216,,76
342,,,,CSR KONG (YAKASSE ATTOBROU),-3.648487,6.113957,,76
344,,,,DISTRICT SANITAIRE DE YAKASSE ATTOBOU,-3.643498,6.197656,,76
345,,,,DISPENSAIRE RURAL MEBIFON (YAKASSE ATTOBROU),-3.594453,5.976592,,76
347,,,,GROUBARY (YAKASSE ATTOBROU),-3.606997,6.200399,,76
348,,,,AGNANFOUTOU (YAKASSE ATTOBROU),-3.613806,6.20089,,76
349,,,,PALMERAIE MOSQUEE,-3.958727,5.373129,,7
350,,,,SSSU SAJ BENGERVILLE,-3.884523,5.359314,,7
351,,,,HÔPITAL GENERAL YAKASSE ATTOBROU,-3.636311,6.186638,,76
353,,,,KODIOUSSOU (ALEPE),-3.760842,5.775268,,75
354,,,,EGLISE CATHOLIQUE AFFERY,-3.941153,6.348811,,74
355,,,,HÔPITAL DE POLICE NATIONAL,-4.02326,5.336458,,6
356,,,,DISPENSAIRE GREMONE (ADZOPE),-3.906956,6.176611,,73
359,,,,ANOKRO (ALEPE),-3.549,5.575,,75
878,,,,COMMANDEMENT SUPÉRIEUR DE LA GENDARMERIE (CSG),-4.022451,5.336405,,6
879,,,,MATERNITE ANNEPE,-3.772143,5.907196,,73
880,,,,CSR DIASSON,-3.74851,5.973705,,73
881,,,,CENTRE DE SANTE YAKASSE ME,-3.956889,5.805505,,73
882,,,,CSR ASSIKOUN,-3.874572,6.421244,,74
883,,,,DISPENSAIRE AKOUDZIN,-3.970305,5.841397,,73
884,,,,CENTRE DE SANTE BECEDI ANON,-3.999489,5.921005,,73
885,,,,CSR BASSADZIN,-3.86704,6.029678,,73
886,,,,INHP PORT BOUET,-3.946564,5.248759,,9
888,,,,FONCTION PUBLIQUE ABIDJAN,-4.018359,5.342462,,6
889,,,,IMPRIMERIE NATIONALE ABIDJAN,-4.008255,5.359959,,6
890,,,,INSPECTION GENERALE D ETAT,-4.021961,5.322599,,6
892,,,,IMMEUBLE CIAM,-4.018304,5.325813,,6
894,,,,CGRAE ABIDJAN PLATEAU,-4.013993,5.318742,,6
895,,,,CMS CROIX ROUGE PLATEAU,-4.112534,5.291541,,6
896,,,,MAIRIE TREICHVILLE,-4.01524,5.310135,,10
897,,,,SGCI PLATEAU,-4.020492,5.320374,,6
898,,,,AMBASSADE DU LIBAN,-4.017856,5.318423,,6
899,,,,SIEGE PETROCI,-4.025016,5.32833,,6
900,,,,COTE D IVOIRE TOURISME,-4.027938,5.317332,,6
901,,,,INSTITUT NATIONAL DE LA STATISTIQUE ABIDJAN,-4.025521,5.33319,,6
902,,,,DDSHP YAKASSE ATTOBROU,-3.651435,6.192025,,74
903,,,,DISTRICT SANITAIRE YAKASSE ATTOBROU,-4.277887,5.351043,,76
904,,,,CHR SAN PEDRO,-6.636097,4.74658,,98
905,,,,CHR BONDOUKOU,-2.796087,8.040832,,47
906,,,,CSR MALMALAKRO (TIAPOUM),-2.968937,5.239505,,103
907,,,,HOPITAL GENERAL GRAND BASSAM,-3.738239,5.207976,,102
908,,,,CSR SAMO (GRAND BASSAM),-3.518437,5.281705,,102
909,,,,HOPITAL GENERAL TIAPOUM,-3.016766,5.137877,,103
910,,,,DISTRICT GRAND BASSAM,-3.767239,5.222801,,102
911,,,,HOPITAL GENERAL BONOUA,-3.59247,5.274318,,102
912,,,,CSR EDJAMBO (TIAPOUM),-2.965337,5.196705,,103
913,,,,AGRO CI (BONOUA),-3.545036,5.279432,,102
914,,,,DIOULABOUGOU 1 (BONOUA),-3.59815,5.266418,,102
915,,,,DIOULABOUGOU 2 ( BONOUA),-3.597898,5.273651,,102
916,,,,CSU NOUAMOU,-2.901768,5.179084,,103
917,,,,COLLEGE MODENE NOUAMOU (TIAPOUM),-2.902664,5.179665,,103
918,,,,MATERNITE NGUIEME (TIAPOUM),-3.053189,5.146105,,103
919,,,,HÔPITAL GENERAL D ADIAKE,-3.299085,5.28537,,101
920,,,,CSU NOE,-2.80057,5.291968,,103
921,,,,COLLEGE MODERNE NOE,-2.80057,5.291968,,103
922,,,,ASSUE MOSSI (TIAPOUM),-2.997722,5.156586,,103
923,,,,KAKOUKRO (ADIAKE),-3.375748,5.295805,,101
924,,,,PETIT PARIS (ADIAKE),-3.418005,5.290772,,101
925,,,,KONGODJAN (ADIAKE),-3.434885,5.298104,,101
343,,2022-10-11 10:22:09.878616 +00:00,,CSR DIANGOBO (YAKASSE ATTOBROU),-3.336489,6.569288,,76
926,,,,CSR DJIMINI (ADIAKE),-3.453432,5.286995,,101
927,,,,DISTRICT D AKOUPE,-3.889692,6.390775,,74
928,,,,INHP PORT-BOUET,-3.896256,5.240139,,9
929,,,,DISTRICT ABOISSO,-3.207821,5.46927,,100
930,,,,ESCADRON ABOISSO,-3.211468,5.464701,,100
931,,,,CSR DJEMISSIKRO,-2.971443,5.269163,,100
932,,,,CSU AHIGBE-KOFFIKRO,-2.978148,5.585143,,100
933,,,,HOPITAL GENERAL MAFERE,-3.032536,5.413605,,100
934,,,,GRANDE MOSQUEE (ABOISSO),-3.205075,5.476242,,100
935,,,,PREFECTURE (ABOISSO),-3.203583,5.470657,,100
936,,,,CHR KORHOGO,-5.632936,9.443232,,94
937,,,,CHEZ LE CHEF (YAOU),-3.137409,5.800265,,100
938,,,,GARE ROUTIERE (ABOISSO),-3.208767,5.468098,,100
939,,,,MARCHE ASSOUBA (ABOISSO),-3.255484,5.45914,,100
940,,,,CSR EBOUE (ABOISSO),-3.121326,5.344823,,100
941,,,,PELOTON (ABOISSO),-3.204346,5.467639,,100
942,,,,GM MARCORY,-3.975893,5.300077,,10
943,,,,GRAND MARCHE TREICHVILLE,-4.01367,5.308937,,10
944,,,,MARCHE BELLE-VILLE TREICHVILLE,-3.997467,5.304632,,10
945,,,,CHEFFERIE KOHOUROU (ABOISSO),-3.328654,5.479605,,100
951,,,,FLASH COCODY,-3.99352,5.350108,,7
956,,,,FLASH,-3.993517,5.350039,,7
960,,,,CHANTIER BTP (ABOISSO),-3.199402,5.472706,,100
961,,,,MOSQUEE BANGALIDOUGOU (ABOISSO),-3.382914,5.43241,,100
962,,,,C.S. ADIASSO,-3.869385,6.407873,,74
963,,,,DISTICT AKOUPE,-3.880838,6.38652,,74
964,,,,MATERNITE ADZOPE,-3.871169,6.120607,,73
965,,,,CSU KRINDJABO,-3.204328,5.472226,,100
978,,,,CENTRE DE SANTE ADZOPE,-3.77268,6.223125,,73
979,,,,MOSQUEE GRAND MARCHE (ABOISSO),-3.210549,5.466519,,100
980,,,,PLACE PUBLIQUE ABOISSO,-3.204738,5.476568,,100
981,,,,FSU COM ANOUMABO,-3.960901,5.310265,,10
982,,,,CIPREMCI BONOUA,-3.592633,5.277078,,102
984,,,,CAFOP ABOISSO,-3.197584,5.474401,,100
985,,,,PRESIDENCE 6,-4.022245,5.318868,,7
989,,,,HG M BATTO,-4.357764,6.472826,,85
990,,,,PREFECTURE MBATTO,-4.36469,6.472958,,85
991,,,,DISTRICT SANTE MBATTO,-4.35297,6.466908,,85
992,,,,CSR AGNIA,-4.476512,6.51174,,85
993,,,,GARE ROUTIÈRE MBATTO,-4.361281,6.470637,,85
994,,,,CSU ANOUMABA,-4.354958,6.479006,,85
995,,,,CSU ASSAHARA,-4.348652,6.492561,,85
996,,,,MARIE TIEMELEKRO,-4.623831,6.50279,,85
997,,,,CSU TIEMELEKRO MBATTO,-4.623694,6.500466,,85
998,,,,CSR MENOU MBATTO,-4.356819,6.483929,,85
999,,,,DISPENSAIRE RURAIL TCHEKOU (MBATTO),-4.283424,6.36034,,85
1000,,,,DISPENSAIRE RURAL TCHEKOU (MBATTO),-4.283424,6.36034,,85
1001,,,,DISPENSAIRE RURAL DJANGO (MBATTO),-3.644579,6.185364,,85
1002,,,,HÔPITAL NGOHINOU (MBATTO),-4.511744,6.547157,,85
1003,,,,CENTRE SANTE KOUBEBO(MBATTO),-5.528708,7.742616,,85
1007,,,,CSR ADOUAKOUAKRO (MBATTO),-4.428191,6.606067,,85
1008,,,,CSU ASSIE-AKPESSE(MBATTO),-4.35629,6.473629,,85
1009,,,,MAIRIE ANOUMANBA,-4.523149,6.339571,,85
1010,,,,GRANDE MOSQUEE (MBATTO),-4.359378,6.47285,,85
1011,,,,MAIRIE MBATTO,-4.363104,6.463164,,85
1012,,,,HG BONGOUANOU,-4.193785,6.653053,,84
1013,,,,CSR AGOUA (BONGOUANOU),-4.056903,6.878125,,84
1014,,,,CSU NGUESSANKRO (BONGOUANOU),-4.268329,6.671285,,84
1015,,,,CSU ASSIE KOUMASSI (BONGOUANOU),-4.258092,6.750514,,84
1016,,,,PRESIDENCE 3 (COCODY),-3.983283,5.393917,,7
1017,,,,DISPENSAIRE ASSAOUFOUE (BONGOUANOU),-4.52027,7.067154,,84
1018,,,,CSR AGBOSSOU (BONGOUANOU),-5.265983,6.81075,,84
1019,,,,DISPENSAIRE BROU-AKPAOUSSOU (BONGOUANOU),-4.200133,6.650661,,84
1020,,,,PRESIDENCE 5 (APA),-4.024673,5.322945,,6
1021,,,,PRESIDENCE 4 (APA),-4.024673,5.322945,,6
1022,,,,PRESIDENCE 2 (COCODY),-4.022245,5.318868,,7
1023,,,,DISPENSAIRE RURAL DIEKADIOKRO,-4.358949,6.479898,,85
1024,,,,HOPITAL GENERAL DE ARRAH,-3.9667,6.681539,,83
1025,,,,DIRECTION DEPARTEMENTAL DE SANTÉ ARRAH,-3.982168,6.675284,,83
1026,,,,CSR ABONGOUA (ARRAH),-4.107373,6.647469,,83
1027,,,,CENTRE CULTUREL ARRAH,-3.971638,6.670327,,83
1028,,,,HOPITAL KREGBE (ARRAH),-3.982283,6.972723,,83
1029,,,,NOUVELLE BOULANGERIE (KOTOBI),-4.128566,6.699357,,83
1030,,,,MARCHE DE COLLECTE (KOTOBI),-4.127241,6.700902,,83
1031,,,,FOYER YAFFO AGNI (ARRAH),-3.935295,6.55298,,83
1032,,,,DISPENSAIRE YAFFO AGNI (ARRAH),-3.935352,6.551862,,83
1033,,,,CSR ASSALE KOUASSIKRO (ARRAH),-3.903501,6.964506,,83
1034,,,,PRESIDENCE,-4.022245,5.318868,,7
1035,,,,COCODY AMBASSADE,-3.976248,5.33519,,7
1036,,,,CENTRE SANTE BROU-ATTAKRO (ARRAH),-3.806111,6.679123,,83
1037,,,,COCODY AFFI,-3.948855,5.332156,,7
1038,,,,GARAGE BASSERIBA (ARRAH),-4.126589,6.694042,,83
1039,,,,MARCHE KREGBE (ARRAH),-3.987534,6.971868,,83
1040,,,,AMELEKIA,-3.570798,6.828273,,68
1041,,,,PALAIS DE JUSTICE (ABENGOUROU),-3.485964,6.729508,,68
1042,,,,CHR ABENGOUROU,-3.48276,6.730496,,68
1043,,,,S/P ZARANOU (ABENGOUROU),-3.358751,6.428547,,68
1044,,,,BOKA ABENGOUROU,-3.505447,6.697344,,68
1045,,,,DIOULAKRO ABENGOUROU,-3.492997,6.731037,,68
1046,,,,FOYER NIABLE (ABENGOUROU),-3.268776,6.662519,,68
1047,,,,PLACE PUBLIQUE (ABENGOUROU),-3.496599,6.728612,,68
1048,,,,BAKNORE NIABLE (ABENGOUROU),-3.269637,6.664463,,68
1049,,,,CSR NGUINOU (BONGOUANOU),-4.196877,6.649116,,84
1050,,,,ZARANOU ABENGOUROU,-3.369701,6.43583,,68
1051,,,,CHEZ LE CHEF SK SK (ZARANOU),-3.363045,6.428593,,68
1053,,,,PEBROU EBILASSOKRO (ABENGOUROU),-3.239626,5.647244,,68
1054,,,,AHOUSSIKRO EBILASSOKRO (ABENGOUROU),-3.485336,6.765654,,68
1055,,,,GROUPE SCOLAIRE ASSOUAKRO (KREGBE),-4.009062,6.967214,,83
1056,,,,CENTRE DE SANTÉ RURAL EROBO (ARRAH),-3.857878,6.893555,,83
1057,,,,DISPENSAIRE RURAL KOUADIOKRO (ARRAH),-3.819526,6.615058,,83
1058,,,,CENTRE DE SANTÉ URBAIN ZARANOU,-3.361931,6.432145,,68
1062,,,,SOUS-PREFECTURE ANIASSUE(ABENGOUROU),-3.675178,6.658002,,68
1063,,,,CENTRE DE SANTÉ URBAIN ANIASSUE,-3.683523,6.662457,,68
1064,,,,SAIC ANIASSUE (ABENGOUROU),-3.681292,6.660488,,68
1065,,,,CSU DIAMARAKRO (BETTIE),-3.321689,6.23846,,70
1066,,,,LAMINEKRO (BETTIE),-3.409949,6.072452,,70
1067,,,,HG BETTIE,-3.410555,6.075392,,70
1068,,,,CSR AKACOMOEKRO (BETTIE),-3.350999,6.183248,,70
1069,,,,ENTREPRISE PRIVE SAPH (BETTIE),-3.332913,6.183599,,70
1070,,,,CSR BOROBO (BETTIE),-3.422067,6.099741,,70
1071,,,,CSU ABRADINOU (BETTIE),-3.42864,6.11007,,70
1072,,,,HEREDOUGOU (BETTIE),-3.410806,6.071855,,70
1073,,,,ATTIEKRO(BETTIE),-3.208084,6.138325,,70
1074,,,,CS BOROBO (BETTIE),-3.401386,6.103129,,70
1075,,,,CSR APPROMPRON (BETTIE),-3.412044,6.068753,,70
1077,,,,AGNIKRO N QUARTIER (ABENGOUROU),-3.204158,7.13182,,68
1078,,,,GRANDE MOSQUEE ABENGOUROU,-3.496197,6.728441,,68
1079,,,,GRANDE MOSQUEE (AGNIBILEKROU),-3.192244,7.130783,,69
1080,,,,PLACE SOLIDARITE ABENGOUROU,-3.499653,6.72806,,68
1081,,,,CSR APPROMPRONOU (ABENGOUROU),-3.356737,6.998405,,68
1082,,,,CONSEIL REGIONAL ABENGOUROU,-3.510569,6.72395,,68
1083,,,,CENTRE ANTI TUBERCULEUX ABENGOUROU,-3.506594,6.740507,,68
1084,,,,MAIRIE ABENGOUROU,-3.486426,6.730225,,68
1085,,,,INFAS ABENGOUROU,-3.487076,6.729553,,68
1086,,,,PREFECTURE DE POLICE ABENGOUROU,-3.486931,6.731006,,68
1087,,,,REINE MERE (COURS ROYALE ABENGOUROU),-3.48661,6.726557,,68
1088,,,,DIRECTION DES SPORTS ABENGOUROU,-3.480272,6.715698,,68
1089,,,,DDS ABENGOUROU,-3.483039,6.789779,,68
1090,,,,ESCADRON (ABENGOUROU),-3.484946,6.732863,,68
1091,,,,SSSU-SAJ AGNIBILEKROU,-3.202832,7.132826,,69
1092,,,,DETACHEMENT MILITAIRE AGNIBILEKROU,-3.19942,7.137972,,69
1093,,,,CENTRE CULTUREL  AGNIBILEKROU,-3.201728,7.130684,,69
1094,,,,DISTRICT AGNIBILEKROU,-3.197855,7.145994,,69
1095,,,,SIAKAKRO (AGNIBLEKRO),-3.198435,7.137316,,69
1096,,,,CSU AKOBOISSUE (AGNIBILEKROU),-3.209603,6.981598,,69
1097,,,,HG AGNIBILEKROU,-3.200798,7.129404,,69
1098,,,,PLATEAU AGNIBILEKROU,-3.203573,7.138163,,69
1099,,,,LYCEE MODERNE AGNIBILEKROU,-3.19931,7.139723,,69
1100,,,,CSU TANGUELAN (AGNIBILEKROU),-3.313992,7.171209,,69
1101,,,,ROND POINT ABENGOUROU,-3.200961,7.127693,,69
1102,,,,INSPECTION PRIMAIRE (ABENGOUROU),-3.495071,6.741194,,68
1104,,,,SAPH BETTIE,-3.321334,6.155844,,70
1105,,,,YOBOUAKRO (AGNIBILEKROU),-3.317565,7.238476,,69
1106,,,,BELLE-VILLE(AGNIBILEKROU),-3.218261,7.129692,,69
1107,,,,BUREAU EAU ET FORET (AGNIBILEKROU),-3.206771,7.132705,,69
1108,,,,COMMISSARIAT POLICE (AGNIBILEKROU),-3.202458,7.137401,,69
1109,,,,PREFECTURE AGNIBILEKROU,-3.199324,7.122752,,69
1110,,,,LYCEE HKB AGNIBILEKROU,-3.201837,7.136011,,69
1111,,,,BRIGADE TANGUELAN (AGNIBILEKROU),-3.199693,7.142036,,69
1112,,,,EPP AMIAN BOUVAR(AGNIBILEKROU),-3.20236,7.129746,,69
1113,,,,CSR NIANDA AGNIBILEKROU,-3.284968,7.053166,,69
1114,,,,CHR DIMBOKRO,-4.696236,6.652777,,87
1115,,,,GARNISON (DIMBOKRO),-4.705969,6.66102,,87
1116,,,,CSU KOLIBO (DIMBOKRO),-4.710174,6.660649,,87
1117,,,,OLAM DIMBOKRO,-4.705125,6.647559,,87
1119,,,,LYCEE CLASSSIQUE ABIDJAN (LCA),-4.00373,5.403619,,7
1120,,,,DICTRICT DIMBOKRO,-4.704433,6.667438,,87
1121,,,,PMI DIMBOKRO,-4.705387,6.640872,,87
1122,,,,GRANDE MOSQUEE KOUMASSI,-3.962171,5.292527,,8
1123,,,,MARCHE DJE KONAN KOUMASSI,-3.968773,5.28886,,8
1124,,,,GARE YAYA FOFANA KOUMASSI,-3.955174,5.296613,,8
3740,,,,DEMO,0,0,,115
1125,,,,DISTRICT SANITAIRE DIMBOKRO,-4.703195,6.651612,,87
1126,,,,AGNANFOUTOU AGNIBILEKROU,-3.200297,7.130447,,69
1127,,,,MAC-D DIMBOKRO,-3.199196,7.1398,,87
1128,,,,MARCHE BORILOGO (KOUMASSI),-3.941106,5.306296,,8
1129,,,,CSU ABIGUI (DIMBOKRO),-4.262721,7.886638,,87
1130,,,,DR KONGODIA (AGNIBILEKROU),-3.225349,7.053092,,69
1131,,,,COLLEGE EKRA MATHIEU (AGNIBILEKROU),-3.196418,7.143244,,69
1132,,,,CLINIQUE IMACULEE (AGNIBILEKROU),-3.20309,7.130318,,69
1133,,,,CM SOGB,-6.696535,4.783495,,98
1134,,,,MTN MARCORY,-3.992272,5.302187,,10
1135,,,,MAIRIE COCODY,-4.004411,5.33211,,7
1136,,,,INHP YAKRO,-5.27707,6.817907,,23
1137,,,,MOULINS MODERNES DE COTE D IVOIRE(MMCI),-4.023275,5.306247,,10
1138,,,,LYCÉE MODERNE TIASSALE,-4.830679,5.907057,,13
1139,,,,ERIMAKOUDJE 1,-4.194144,5.891187,,11
1140,,,,CSU N'ZUESSI,-5.262906,6.827761,,23
1141,,,,HOPITAL GENERAL BANGOLO,-7.485641,7.014323,,55
1142,,,,HÔPITAL GÉNÉRAL DE BUYO,-7.025797,6.247213,,91
1143,,,,DISPENSAIRE MUNICIPAL DE N'BADON,-3.934909,5.331216,,7
1144,,,,CHR BOUAFLE,-5.743126,6.978472,,80
1145,,,,MICI EMBACI (KOUMASSI),-3.948055,5.286565,,8
1146,,,,SNEDAI GROUPE (COCODY),-3.995699,5.355111,,7
1147,,,,INHP-BOUAKE,-5.036989,7.682898,,39
1148,,,,HOPITAL GENERAL DE JACQUEVILLE,-4.409057,5.207308,,54
1149,,,,BRASSIVOIRE (PK24),-4.159265,5.419628,,5
1150,,,,SEEN HOTEL (PLATEAU),-4.018508,5.319148,,6
1151,,,,BATAILLON DE COMMANDEMENT ET DE SOUTIEN (BCS),-4.022596,5.33614,,7
1152,,,,GROUPE DE SECURITE PORTUAIRE GENDARMERIE (GPS),-3.987111,5.266198,,7
1153,,,,CSU COM ANGRE,-3.984694,5.40529,,7
1155,,,,INHP-03,-7.556265,7.403134,,113
1156,,,,CHU TREICHVILLE,-4.003571,5.293484,,10
1157,,,,INHP-DALOA,-6.4526,6.875053,,61
1158,,,,DISTRICT JACQUEVILLE,-4.412874,5.209606,,54
1159,,,,COCODY RTI,-7.548785,7.41309,,7
1160,,,,SMIT,-4.004962,5.290683,,10
1161,,,,FSU COM ABOBO BAOULE,-3.989823,5.423225,,3
1162,,,,CSU COM ABOBOTE,-3.995873,5.412857,,3
1163,,,,CSU DJIBI,-3.975873,5.457487,,3
1164,,,,FSU HINNEH,-4.042669,5.44961,,3
1165,,,,MICOMEF,-4.023338,5.333073,,6
1167,,,,FOXTROI AZITO,-4.013563,5.265592,,1
1168,,,,SALLE DES FETES AGBOVILLE,-4.219144,5.929818,,11
1169,,,,220 LOGEMENTS,-4.018026,5.34827,,6
1170,,,,BROMAKOTE,-4.031935,5.353,,6
1171,,,,ADJAME SANTE,-4.04495,5.352091,,6
1173,,,,AGBAN VILLAGE,-4.030705,5.361033,,6
1174,,,,ABOBO DOUME,-4.034984,5.320893,,6
1175,,,,CSU ATTECOUBE 3,-4.046926,5.35293,,6
1176,,,,HOPITAL GENERAL ABOBO,-4.016057,5.423518,,4
1177,,,,FSU COM ANONKOUA KOUTE,-4.04683,5.434829,,4
1179,,,,CSU COM ASSOMIN,-4.055693,5.438232,,4
1180,,,,FSU COM SAGBE,-4.030917,5.418373,,4
1181,,,,CM EL RAPHA,-4.019915,5.404007,,4
1182,,,,CSU BOCABO,-4.033622,5.425821,,4
1183,,,,SIEGE DISTRICT PORT-BOUET,-3.961393,5.262522,,9
1184,,,,CSR AHOUE,-3.943151,5.505387,,5
1185,,,,CSR IRHO LAME,-3.848704,5.455662,,5
1186,,,,CSR ATTIEKOI,-3.968993,5.543011,,5
1187,,,,CSU ALLOKOI,-4.146099,5.395998,,5
1188,,,,CSR M'PODY,-4.226902,5.578694,,5
1189,,,,CSR M'BRAGO,-4.269714,5.490813,,5
1190,,,,CSR M'BONOUA,-4.227016,5.551115,,5
1191,,,,CSU AKOUPE ANYAMA,-4.162202,5.480989,,5
1192,,,,CSR AHOUABO,-4.025214,5.50352,,5
1193,,,,CSR ADAROME,-4.200169,5.538568,,5
1194,,,,CSR EBIMPE,-4.081298,5.500485,,5
1195,,,,CSR AZAGUIE BLIDA,-4.095566,5.530083,,5
1196,,,,CSR ANDOKOI 2,-4.226145,5.400574,,5
1197,,,,CSR ANDOKOI 3,-4.226145,5.400574,,5
1198,,,,CSR ANDOKOI 4,-4.226145,5.400574,,5
1199,,,,CSR ANDOKOI 5,-4.226145,5.400574,,5
1200,,,,CSR ANDOKOI 6,-4.226145,5.400574,,5
1201,,,,CSU YOPOUGON SANTE,-4.044233,5.309285,,1
1202,,,,INHP TOITS ROUGE,-4.066764,5.320697,,1
1203,,,,MAIRIE YOPOUGON,-4.067494,5.343994,,1
1204,,,,HOPITAL GENRAL 02,-4.046118,5.500523,,5
1205,,,,CMS NAZAREEN,-4.060273,5.323982,,1
1206,,,,ONG ASAPSU,-4.102443,5.356704,,1
1207,,,,ONG CAMES,-4.070112,5.346778,,1
1208,,,,CMS LAURENT,-4.069915,5.325258,,1
1209,,,,CENTRE SOCIAL MACA EXTERIEUR,-4.078841,5.389124,,1
1210,,,,CSUS MACA INTERIEUR,-4.077167,5.389624,,1
1211,,,,ILE BOULAY,-4.087324,5.284813,,1
1212,,,,HOPITAL GENERAL YOPOUGON ATTIE,-4.080144,5.342025,,2
1213,,,,FSU COM PORT BOUET,-3.886486,5.238673,,2
1215,,,,FSU COM NIANGON,-4.09011,5.324372,,2
1217,,,,CSU COM AZITO,-4.083167,5.304145,,2
1218,,,,CSU COM LOKOA,-4.100022,5.315322,,2
1219,,,,CSU MICAO,-4.093212,5.384185,,2
1220,,,,SONGON KASSEMBLE,-4.20159,5.31837,,2
1221,,,,KOSSHOUEN,-4.288538,5.524327,,2
1222,,,,CSR ADIOPODOUME,-4.132673,5.337825,,2
1224,,,,CSR BAGO,-4.266659,5.49383,,2
1225,,,,CENTRE SOCIAL NIANGON,-4.095203,5.317264,,2
1226,,,,DISPENSAIRE SŒUR CATHERINE,-4.098332,5.339377,,2
1227,,,,CM GRACE DIVINE,-4.101186,5.338523,,2
1228,,,,CM  SOLIDARITE,-4.100808,5.369418,,2
1229,,,,CM EDEN2,-4.111255,5.35169,,2
1230,,,,CM EDEN3,-4.111255,5.35169,,2
1231,,,,CM EDEN4,-4.111255,5.35169,,2
1232,,,,CM EDEN5,-4.111255,5.35169,,2
1233,,,,CM EDEN6,-4.111255,5.35169,,2
1234,,,,CM CASCI ACADEMIE,-4.110048,5.321208,,2
1235,,,,ASAPSU2,-4.102454,5.356863,,2
1236,,,,CM NIEKY,-4.283893,5.399421,,2
1237,,,,CM PALMAFRIQUE,-4.201848,5.405287,,2
3233,2022-09-05 16:19:02.832061 +00:00,2022-09-05 16:19:02.832061 +00:00,,DISPENSAIRE URBAIN SAN PEDRO,-6.635065871927455,4.747750060959599,"",98
3235,2022-09-05 16:19:02.909513 +00:00,2022-09-05 16:19:02.909513 +00:00,, CSR DEMBASSO,-6.4009574610190745,9.684618302922654,"",18
3237,2022-09-05 16:19:02.958121 +00:00,2022-09-05 16:19:02.958121 +00:00,,CSU ASSINIE MAFIA,-3.2617267134901518,5.287104165522899,"",101
1260,,,,ONG ASAPSU (ABOBO),-4.102443,5.356704,,4
3239,2022-09-05 16:19:03.008701 +00:00,2022-09-05 16:19:03.008701 +00:00,,CSR EPLEMAN,-3.2617267134901518,5.287104165522899,"",101
3241,2022-09-05 16:19:03.049273 +00:00,2022-09-05 16:19:03.049273 +00:00,,CSR MOHA,-3.2617267134901518,5.287104165522899,"",101
3243,2022-09-05 16:19:03.097316 +00:00,2022-09-05 16:19:03.097316 +00:00,,CSR MABIANEHA,-3.2617267134901518,5.287104165522899,"",101
3245,2022-09-05 16:19:03.145345 +00:00,2022-09-05 16:19:03.145345 +00:00,,CSR ETUEBOUE,-3.2617267134901518,5.287104165522899,"",101
3247,2022-09-05 16:19:03.189782 +00:00,2022-09-05 16:19:03.189782 +00:00,,CSR ABIATY,-3.2617267134901518,5.287104165522899,"",101
3249,2022-09-05 16:19:03.244693 +00:00,2022-09-05 16:19:03.244693 +00:00,,CSR MELEKOUKRO,-3.2617267134901518,5.287104165522899,"",101
3251,2022-09-05 16:19:03.290253 +00:00,2022-09-05 16:19:03.290253 +00:00,,CSR TONGON,-5.898788017934493,10.00401238711601,"",96
3253,2022-09-05 16:19:03.332852 +00:00,2022-09-05 16:19:03.332852 +00:00,,CSR NAMBIRA,-5.898788017934493,-5.898788017934493,"",96
3255,2022-09-05 16:19:03.378560 +00:00,2022-09-05 16:19:03.378560 +00:00,,CSR MIBRIGUE,-5.898723644914796,10.004065215662898,"",96
3259,2022-09-05 16:19:03.474084 +00:00,2022-09-05 16:19:03.474084 +00:00,,CSR TIOROTIERI,-5.898723644914796,10.004065215662898,"",96
3261,2022-09-05 16:19:03.517257 +00:00,2022-09-05 16:19:03.517257 +00:00,,CSR RAYMONDKRO,-6.6356935981003495,4.748617521115666,"",98
3265,2022-09-05 16:19:03.601924 +00:00,2022-09-05 16:19:03.601924 +00:00,,DR AYEBO,-3.2078314386066373,5.470146583018428,"",100
3267,2022-09-05 16:19:03.638446 +00:00,2022-09-05 16:19:03.638446 +00:00,,CSR TOUMOUGUIE VILLAGE,-3.2078314386066373,5.470146583018428,"",100
3269,2022-09-05 16:19:03.680585 +00:00,2022-09-05 16:19:03.680585 +00:00,,CSR KAKOUKRO LIMITE,-3.2078314386066373,5.470146583018428,"",100
3271,2022-09-05 16:19:03.717046 +00:00,2022-09-05 16:19:03.717046 +00:00,,CSR KOUKOURANDOUMI,-3.2078314386066373,5.470146583018428,"",100
3273,2022-09-05 16:19:03.769674 +00:00,2022-09-05 16:19:03.769674 +00:00,,CSR SAN KOUNKRO,-3.2078314386066373,5.470146583018428,"",100
3275,2022-09-05 16:19:03.820814 +00:00,2022-09-05 16:19:03.820814 +00:00,,CSR APPOUASSO,-3.2078314386066373,5.470146583018428,"",100
1292,,,,CENTRE SOCIAL ENTENTE,-4.000619,5.302249,,10
1293,,,,DISPENSAIRE DU PONT,-4.018071,5.308194,,10
1294,,,,CSU COM ARRAS 3,-3.99969,5.301939,,10
1297,,,,DISTRICT YOPOUGON OUEST,-4.054598,5.444895,,2
1298,,,,HOPITAL GENERAL BONGOUANOU,-4.19372,6.652969,,84
1299,,,,CSU COM AKLOMIABLA,-3.94269,5.314439,,8
1300,,,,CLINIQUE MEDICALE DE KOUMASSI,-3.968808,5.28824,,8
1301,,,,CSA SOUBRE,-6.588886,5.786658,,90
1302,,,,HOPITAL GENERAL FERKESSEDOUGOU,-5.199463,9.598426,,108
1303,,,,HOPITAL GENERAL TABOU,-7.357566,4.417369,,99
1304,,,,CSU GRABO,-7.502806,4.932858,,99
1305,,,,CSU PARA,-7.331461,5.505167,,99
1306,,,,CSU DJOUROUTOU,-7.285467,5.362653,,99
1307,,,,SIEGE DISTRICT DABOU,-4.380808,5.321827,,52
1308,,,,CHR KATIOLA,-5.104984,8.144247,,59
1309,,,,SIEGE DISTRICT SANITAIRE GRAND LAHOU,-5.004407,5.270079,,53
1310,,,,CARITAS (PORT BOUET VRIDI),-3.964589,5.252926,,9
1311,,,,HOPITAL GENERAL DE BOUNA,-2.999939,9.27161,,27
1312,,,,PMI KATIOLA,-5.098389,8.141128,,59
1313,,,,HOPITAL GENERAL NIAKARA,-5.282169,8.664589,,60
1314,,,,CSU TORTIYA,-5.681563,8.769376,,60
1315,,,,CSU TAFIRE,-5.155479,9.070259,,60
1316,,,,CMS SUCAF,-5.233265,9.453632,,60
1317,,,,CSU BADIKAHA,-5.168134,9.188475,,60
1318,,,,DISPENSAIRE RURAL KROKOM,-5.408951,5.211678,,53
1319,,,,CENTRE SANTE RURAL TIEVIESSOU,-4.891023,5.348271,,53
1320,,,,CENTRE SANTE URBAIN AHOUANOU,-4.858618,5.506255,,53
1322,,,,CENTRE SANTE URBAIN BACANDA,-4.877601,5.630479,,53
1323,,,,CENTRE SANTE URBAIN EBOUNOU,-5.356493,5.121523,,53
1324,,,,CENTRE SANTE RURAL TOUKOUZOU,-4.791679,5.153951,,53
1325,,,,SIEGE DISTRICT SANITAIRE ADIAKE,-3.299312,5.285181,,101
1326,,,,HOPITAL GENERAL PRIKRO,-3.996218,7.653644,,67
1328,,,,CSU KOFFI AMONKRO,-3.960741,7.466951,,67
1329,,,,CSR LINGUEZAN,-3.933634,7.700943,,67
1330,,,,HOPITAL GENERAL DE TANDA,-3.168034,7.799516,,48
1331,,,,HOPITAL GENERAL DE SANDEGUE,-3.57902,7.949282,,50
1332,,,,CENTRE SOCIAL DE TANDA,-2.980529,7.697832,,48
1333,,,,DISTRICT DE  TANDA,-3.167404,7.801379,,48
1334,,,,HOPITAL GENERAL DE SASSANDRA,-5.996139,5.425142,,42
1335,,,,PMI BONDOUKOU,-2.795822,8.040889,,47
1336,,,,CSU DIOULAKRO,-5.271057,6.812368,,23
1337,,,,PMI YAKRO,-5.273768,6.826819,,23
1338,,,,CSU MOROFE,-5.292775,6.845419,,23
1339,,,,CSU LOLOBO,-5.293455,6.955824,,23
1340,,,,CSU KOSSOU,-5.47928,7.0013,,23
1341,,,,CSU ATTIEGOUAKRO,-5.119805,6.773816,,23
1342,,,,CSU ZATTA,-5.405171,6.874605,,23
1343,,,,CSR DUOKRO,-5.234919,6.666249,,23
1344,,,,CSR OUFFOUE-DIEKRO,-5.135283,6.916111,,23
1345,,,,HG DIDIEVI,-4.898203,7.12497,,20
1346,,,,CSR BOLI,-4.806589,7.227381,,20
1347,,,,CSU MOLONOUBLE,-4.986191,7.399588,,20
1348,,,,CSU TIE-N'DIEKRO,-4.765321,7.426453,,20
1349,,,,CSU RAVIART,-4.888136,7.401487,,20
1350,,,,DDS DIDIEVI 1,-4.897489,7.128694,,20
1351,,,,DDS DIDIEVI 2,-4.897489,7.128694,,20
1352,,,,CSU LOMOKANKRO,-5.029281,7.085096,,21
1353,,,,CSU MOLONOU,-5.365622,7.160829,,21
1354,,,,CSR KONDE YAOKRO,-5.234071,7.097703,,21
1355,,,,CSR NGATTADOLIKRO,-5.140806,7.280455,,21
1356,,,,CSR TAKISSALEKRO,-5.26751,7.223099,,21
1357,,,,DR GROGO,-5.425773,7.213515,,21
1358,,,,CSU AHOUGNANSOU,-5.057567,7.16235,,39
1361,,,,DS TIEBISSOU 3,-5.223212,7.159939,,21
1362,,,,CSU BINAWA,-5.014393,6.580243,,22
1363,,,,CSU KOKOUMBO,-5.260903,6.54023,,22
1364,,,,CSU KPOUEBO,-4.854854,6.332546,,22
1365,,,,HG DJEKANOU,-5.113718,6.470865,,22
1366,,,,HG TOUMODI 1,-5.018508,6.550145,,22
1367,,,,HG TOUMODI 2,-5.018508,6.550145,,22
1368,,,,SIEGE DISTRICT KATIOLA,-5.098441,8.141212,,59
1369,,,,CENTRE DE SANTE URBAIN FRONAN,-5.124473,8.214973,,59
1371,,,,CHR YAKRO,-5.277354,6.817409,,23
1372,,,,CENTRE SANTE URBAIN ANDE,-3.950886,6.040108,,84
1373,,,,CSU SAPLI DE BONDOUKOU,-2.994261,8.153591,,47
1374,,,,HOPITAL GENERAL DE KOUN-FAO,-3.256138,7.49387,,49
1375,,,,CSU DAKPADOU( SASSANDRA),-6.070321,5.237267,,42
1376,,,,CSU SAGO( SASSANDRA ),-5.920429,5.268657,,42
1377,,,,CSR LOBAKUYA ( SASSANDRA ),-6.349871,5.084316,,42
1378,,,,CSR SAHOUA (SASSANDRA),-6.257369,5.068052,,42
1380,,,,CENTRE SANTE URBAIN IROBO,-4.798804,5.295277,,54
1381,,,,CENTRE SANTE RURAL NDJEM,-4.240007,5.26366,,54
1382,,,,GRANDE MOSQUEE LAKOTA,-5.682764,5.849827,,79
1383,,,,HOPITAL GENERAL  DE LAKOTA,-5.680797,5.857286,,79
1384,,,,INHP BONDOUKOU,-2.795854,8.043052,,47
1385,,,,HOPITAL GENERAL DABAKALA,-4.435163,8.368357,,58
1386,,,,HOPITAL GENERAL DE FRESCO,-5.586998,5.103389,,43
1387,,,,CSU DASSIOKO,-5.832126,5.114375,,43
1388,,,,INHP FERKE,-5.198258,9.595668,,108
1389,,,,CSU KOUMBALA (FERKE),-5.164243,9.514839,,108
1390,,,,CSU DOMINIQUE OUATTARA (FERKE),-5.197777,9.594937,,108
1391,,,,HOPITAL GENERAL KONG,-4.610886,9.148993,,110
1392,,,,MAIRIE DE KONG,-4.607626,9.148448,,110
1393,,,,CSU NAFANA,-4.786484,9.19359,,110
1394,,,,CSU SIKOLO,-4.714313,9.440271,,110
1395,,,,SIEGE DISTRICT SANITAIRE KONG,-4.602273,9.159478,,110
1396,,,,SSSU-SAJ SINEMATIALI,-5.396047,9.577397,,97
1397,,,,CSR KAGBOLODOUGOU,-5.402499,9.395519,,97
1398,,,,CSR BALEKAHA,-5.458136,9.607591,,97
1399,,,,CSR BAHOUAKAHA,-5.413666,9.497444,,97
1400,,,,CSR OUOLLOH,-5.450368,9.657224,,97
1401,,,,CSR NAKOUROUBELEKAHA,-5.445513,9.613855,,97
1402,,,,HOPITAL GENERAL DIOKODOUGOU,-5.773961,9.071019,,93
1403,,,,CSU GUIEMBE,-5.713046,9.236996,,93
1404,,,,CSR OUATTARADOUGOU,-5.815644,8.670524,,93
1405,,,,DR KALAHA,-5.813988,9.300767,,93
1406,,,,CSU BORON,-5.965967,8.699799,,93
1407,,,,CSR KOFFISSIOKAHA,-4.904021,8.136511,,59
1408,,,,CSR LOUGBONOU,-5.252553,8.06312,,59
1409,,,,SIEGE DISTRICT SANITAIRE KATIOLA,-5.098441,8.141212,,59
1410,,,,CSU SIRASSO,-6.099742,9.277201,,95
1411,,,,CSU KANOROBA,-6.122968,9.112574,,95
1412,,,,CSU NIOFOIN,-6.079108,9.609659,,95
1413,,,,CSR N'GANON,-5.996131,9.680896,,95
1414,,,,CSR DAGBA,-5.9583,9.253504,,95
1415,,,,CSR SEGUETIELE,-6.101109,9.502469,,95
1416,,,,CSR PITIENGOMON,-6.060901,9.76445,,95
1417,,,,CSR NAFOUN,-6.210848,9.334788,,95
1418,,,,CSR KOMBOLOKORO,-5.885729,9.331239,,95
1419,,,,DR KIERE,-6.066587,9.099952,,95
1420,,,,CSR TALLERE,-5.840276,9.374752,,95
1421,,,,SIEGE  DISTRICT SANITAIRE KORHOGO 2,-5.632402,9.452021,,95
1422,,,,HOPITAL GENERAL DAOUKRO,-3.970596,7.057016,,65
1423,,,,SIEGE DISTRICT SANITAIRE DAOUKRO,-3.969694,7.058932,,65
1424,,,,GARE DOMINIQUE OUATTARA,-3.959285,7.061656,,65
1425,,,,PHARMACIE DU MARCHE,-3.961193,7.058467,,65
1426,,,,CSU ETTROKRO,-3.76972,7.258764,,65
1429,,,,CSR LEKIKRO,-4.110797,7.165015,,65
1430,,,,CSU OUELLE,-4.008788,7.292244,,65
1431,,,,CSU ANANDA,-4.246934,7.285391,,65
1432,,,,DISPENSAIRE RURAL POTOSSOU,-4.426526,7.282887,,65
1433,,,,DISPENSAIRE RURAL AGNI ASSIKASSO,-4.066157,7.100164,,65
1434,,,,DISPENSAIRE RURAL N'GUATTAKRO,-3.760158,7.062866,,65
1435,,,,DISPENSAIRE RURAL KOUAKOUSSEKRO,-4.159078,7.291126,,65
1436,,,,CSU GBAGBAM,-5.591492,5.475997,,43
1437,,,,CSU DAHIRI,-5.525473,5.283548,,43
1438,,,,HOPITAL GENERAL DE TRANSUA,-3.011309,7.544268,,51
1360,,2023-01-03 09:42:35.128870 +00:00,,HOPITAL GENERAL TIEBISSOU,-5.223212,7.159939,,21
1441,,,,SSSU-SAJ KOUASSI-KOUASSIKRO,-4.706656,7.035908,,88
1442,,,,CENTRE DE SANTE RURAL SASSAOKRO,-4.62292,7.168745,,88
1443,,,,DISPENSAIRE RURAL SAHAGUIKRO,-4.646997,7.441761,,88
1444,,,,CENTRE DE SANTE RURAL MEKRO,-4.676092,7.138171,,88
1445,,,,DISPENSAIRE RURAL BOUNDA,-4.740357,7.621723,,88
1446,,,,DISPENSAIRE RURAL GBANAN N'GATTAKRO,-4.701693,7.407523,,88
1447,,,,DISPENSAIRE RURAL BONZO MALEKRO,-4.628871,7.387921,,88
1448,,,,CHR MAN,-7.547359,7.406244,,113
1449,,,,HOPITAL GENERAL DE M'BAHIAKRO,-4.336999,7.45868,,66
1450,,,,HOPITAL GENERAL DE DABOU,-4.37944,5.321103,,52
1451,,,,CSR BLOLE,-7.513871,7.321031,,113
1452,,,,INHP MAN,-7.558944,7.403395,,113
1453,,,,SIEGE DISTRICT OUANGOLODOUGOU,-5.158052,9.970062,,109
1454,,,,HOPITAL GENERAL OUANGOLODOUGOU,-5.157643,9.969638,,109
1455,,,,CENTRE DE SANTE URBAIN KAOUARA,-5.19629,10.093717,,109
1456,,,,CENTRE SANTE URBAIN NIELLE,-5.621242,10.196356,,109
1457,,,,CENTRE SANTE URBAIN TOUMOUKORO,-5.752499,10.384874,,109
1458,,,,CENTRE SANTE URBAIN DIAWALA,-5.475246,10.108153,,109
1459,,,,HOPITAL DE N'DOUCI,-4.753406,5.871051,,13
1460,,,,HOPITAL GENERAL DE BOUNDIALI,-6.483173,9.519304,,17
1461,,,,DISTRICT SANITAIRE DE DALOA,-6.454718,6.871992,,61
1462,,,,HOPITAL GENERAL DE VAVOUA,-6.480847,7.388979,,63
1463,,,,CENTRE HOSPITALIER REGIONAL DE DIVO,-5.356342,5.842647,,77
1465,,,,HÔPITAL GÉNÉRAL DE VAVOUA,-6.482003,7.389275,,63
1466,,,,DISPENSAIRE URBAIN VAVOUA,-6.479896,7.389291,,63
1467,,,,DISTRICT SANITAIRE VAVOUA,-6.477418,7.391509,,63
1471,,,,CSR KETRO BASSAM,-6.682732,7.201651,,63
1474,,,,CSR BONOUFLA,-6.472152,7.127389,,63
1475,,,,CSR DANANON,-6.36206,7.612263,,63
1476,,,,CHR AGBOVILLE,-4.21605,5.920444,,11
1477,,,,SOLIDARITE 1,-3.500364,6.725357,,68
1478,,,,SOLIDARITE 2,-3.497806,6.727483,,68
1479,,,,MOSQUEE,-3.493769,6.728219,,68
1480,,,,NOUVEAU QUARTIER,-3.476428,6.739676,,68
1483,,,,ANIASSUE,-3.675178,6.658002,,68
1484,,,,EBILASSOKRO,-3.343053,6.380179,,68
1486,,,,NIABLE,-3.275156,6.663572,,68
1487,,,,YAKASSE-FEYASSE,-3.416254,6.956197,,68
1488,,,,CENTRE DE SANTE URBAIN BOUGOU,-5.867247,10.223659,,96
1489,,,,CENTRE DE SANTE URBAIN KATOGO,-6.128773,10.145594,,96
1490,,,,CENTRE DE SANTE URBAIN KATIALI,-6.489537,9.15611,,96
1491,,,,CENTRE DE SANTE RURAL POUNGBE,-5.784014,9.90209,,96
1492,,,,CENTRE DE SANTE RURAL KALOA,-6.04842,10.001456,,96
3741,,,,SAH,0,0,,116
1440,,2022-08-29 16:36:06.004320 +00:00,,HOPITAL GENERAL KOUASSI KOUASSIKRO,-4.675884,7.342407,,88
1493,,,,SIEGE DISTRICT SANITAIRE M'BENGUE,-5.894426,10.005721,,96
1494,,,,CSR MIGNORE SEITIFLA,-6.71867,7.439969,,63
1495,,,,CSR ANCIEN PROZI,-6.969141,7.675022,,63
1496,,,,CSU DANIA,-6.840985,7.148933,,63
1497,,,,CSR VAOU,-7.113833,7.383858,,63
1498,,,,HOPITAL GENERAL DE LAKOTA,-5.680794,5.856719,,79
1499,,,,HOPITAL GENERAL DE GAGNOA,-5.947513,6.127169,,44
1500,,,,HOPITAL DE DUEKOUE,-7.342427,6.744576,,56
1501,,,,CSU HERMANKONO GARO,-5.024311,5.927404,,77
1502,,,,DISTRICT SANITAIRE DE DIVO,-5.358946,5.831245,,77
1503,,,,PMI DIVO,-5.349146,5.850159,,77
1505,,,,BRABODOUGOU,-5.299581,5.799089,,77
1506,,,,CSU NEBO,-5.409492,5.946303,,77
1507,,,,HOPITAL GENERAL DE TENGRELA,-6.408695,10.497788,,19
1508,,,,HOPITAL GENERAL DE SIKENSI,-4.579016,5.66131,,12
1509,,,,CSU SEGUELA,-6.671769,7.958812,,111
1510,,,,PMI SEGUELA,-6.673966,7.955266,,111
1511,,,,CHR SEGUELA,-6.682112,7.962315,,111
1512,,,,SERVICE PEV SEGUELA,-6.669367,7.961406,,111
1513,,,,DISPENSAIRE RURAL PANIGOKRO,-4.013701,7.441522,,66
1514,,,,CENTRE DE SANTE RURAL SONDO,-4.596509,7.510663,,66
1515,,,,CENTRE SANTE RURAL AKPOUEBOUE,-4.144804,7.440328,,66
1516,,,,CENTRE SANTE RURAL ATTOKRO,-4.355169,7.836439,,66
1517,,,,CENTRE SANTE RURAL ADIYAPIKRO,-4.306472,7.558293,,66
1518,,,,CENTRE SANTE RURAL DADIEKRO,-4.363138,7.675494,,66
1519,,,,CENTRE SANTE RURAL OUASSADOUGOU,-4.234391,7.706184,,66
1520,,,,CENTRE SANTE URBAIN BONGUERA,-4.243151,7.668863,,66
1521,,,,CENTRE SANTE RURAL AMANKRO,-3.99508,7.417127,,66
1522,,,,HOPITAL GENERAL M'BAHIAKRO,-4.343124,7.457759,,66
1523,,,,DISPENSAIRE RURAL KPAKPANOU,-4.4559,7.7856,,66
1524,,,,HOPITAL GENERAL BONIEREDOUGOU,-4.717901,8.380067,,58
1525,,,,CSU SOKALA SOBARA,-4.524219,8.440045,,58
1526,,,,CSU NIEMENE,-4.551265,9.199097,,58
1527,,,,CSU FOUMBOLO,-4.649579,8.633467,,58
1531,,,,DISTRICT SANITAIRE DUEKOUE,-7.360454,6.744649,,56
1532,,,,COMPLEXE AGORA KOUMASSI,-3.964841,5.287397,,8
1533,,,,HG OUANINOU,-7.868604,8.237787,,16
1534,,,,HOPITAL GENERAL ZOUAN-HOUNIEN,-8.208131,6.928389,,107
1537,,,,CS KIERE,-5.637756,9.461443,,95
1538,,,,CSU NZUESSI,-5.262274,6.824239,,23
1549,,,,CSR OUFFOUEDIEKRO,-5.135283,6.916111,,23
1550,,,,CSU DOUBAI ANYAMA,-4.049224,5.485863,,5
1551,,,,CHR ODIENNE,-7.559999,9.502894,,71
1553,,,,CSR-D PUBLIC BAMBALOUMA,-6.008755,7.850021,,24
1554,,,,CSR-D PUBLIC  BOYAOKRO,-5.746089,7.619404,,24
1555,,,,CSR-DM PUBLIC FOUTOUNOU,-5.766886,7.834294,,24
1556,,,,CSR DM PUBLIC DE GBEMA,-6.053384,7.727302,,24
1558,,,,CSR DM PUBLIC DE KOROKOPLA,-5.968477,7.8803,,24
1559,,,,CSR DM PUBLIC DE KOUATTA,-5.877716,7.870946,,24
1560,,,,CSR DM PUBLIC DE LEASSO,-5.922898,7.731353,,24
1561,,,,CSR DM PUBLIC DE SOUKOUROUGBAN,-5.932357,7.847729,,24
1562,,,,CSR DM PUBLIC DE TOUBALO,-6.105061,7.722018,,24
1563,,,,CSR DM PUBLIC DE TRAFESSO,-5.873128,7.756935,,24
1564,,,,CSU DM PUBLIC DE KONGASSO,-6.081917,7.815165,,24
1565,,,,CSUS PMI PUBLIC DE KOUNAHIRI,-5.837987,7.792472,,24
1566,,,,COTIVO,-4.204457,5.912758,,11
1567,,,,HOPITAL DUEKOUE,-7.342986,6.743914,,56
1568,,,,CSU PETIT PARIS,-5.612122,9.462094,,94
1574,,,,PMI DUEKOUE,-7.362514,6.749423,,56
1575,,,,CSU KOKOTON,-5.645736,9.46283,,94
1576,,,,CENTRE DE SANTE ODIENNE,-7.56322,9.502111,,71
1577,,,,CSU TIORONIARADOUGOU,-5.641982,9.352043,,94
1578,,,,CSU NAPIELEDOUGOU,-5.585488,9.290662,,94
1579,,,,DISTRICT SANITAIRE DE TRANSUA,-3.01105,7.544085,,51
1580,,,,CSU ASSUEFRY,-2.977833,7.699882,,51
1581,,,,CSU KARAKORO,-5.517776,9.391082,,94
1582,,,,CSU LATAHA,-5.593008,9.564153,,94
1583,,,,CSU DASSOUNGBO,-5.782888,9.390734,,94
1584,,,,CSU KASSIRIME,-5.606744,9.447001,,94
1585,,,,PMI KORHOGO,-5.632769,9.451793,,94
1586,,,,CENTRE MEDICAL JEAN DELAFOSSE,-5.631328,9.468986,,94
1589,,,,SIEGE DISTRICT TIAPOUM,-3.020764,5.14154,,103
1590,,,,CSR BAHOULIFLA,-6.470372,7.234514,,63
1591,,,,CSU UNICAFE (ANYAMA),-4.047307,5.461301,,5
1592,,,,HÔPITAL  GÉNÉRAL DE BEOUMI,-5.546841,7.539877,,37
1593,,,,GRANDE MOSQUEE DE VAVOUA,-6.479405,7.384656,,63
1594,,,,DR AMANGOUA KOI,-3.924437,5.2864,,9
1595,,,,CSU HENRIETTE DIABATE,-4.009024,5.367476,,7
1596,,,,CSU AGOU,-3.944456,5.983259,,73
1600,,,,PMI ADZOPE,-3.860546,6.103902,,73
1603,,,,ISSIA MAIRIE,-6.589631,6.488893,,62
1604,,,,CSU ANDE (ISSIA),-6.588311,6.491382,,62
1605,,,,EPP MIMA,-6.583912,6.498444,,62
1606,,,,ISSIA CENTRE POLICE,-6.586989,6.492246,,62
1607,,,,GRANDE MOSQUEE (ISSIA),-6.587384,6.495159,,62
1610,,,,GRANDE MOSQUEE ISSIA,-6.587405,6.495106,,62
1611,,,,HOPITAL GENERAL ISSIA,-6.585252,6.498866,,62
1614,,,,INHP-TVILLE VIP,-4.005098,5.294604,,10
1615,,,,HOPITAL GENERAL DE TEHINI,-3.670875,9.614644,,30
1616,,,,CSU TOUGBO,-3.640675,9.684885,,30
1617,,,,FSU AFFERY,-3.951007,6.321881,,74
1618,,,,CSR DZEUDJI,-3.849495,5.594267,,75
1619,,,,CSU ABOISSO-COMOE,-3.656559,5.497882,,75
1620,,,,CSU ALLOSSO 2,-3.581182,5.623371,,75
1621,,,,HOPITAL GENERAL ALEPE,-3.664891,5.500785,,75
1623,,,,SIEGE DISTRICT NIAKARA,-5.281978,8.665683,,60
1624,,,,HOPITAL GENERAL GUITRY,-5.241837,5.523671,,78
1625,,,,HG DOROPO,-3.355161,9.826952,,29
1626,,,,CSU LOCODJRO,-4.03719,5.32446,,6
1627,,,,CSU ANONO,-3.973872,5.345831,,7
1628,,,,CSU ABATTA,-3.9139,5.32623,,7
1629,,,,CSR ZAKOEOUA,-6.507919,6.250643,,90
1630,,,,SALLE DES FETES,-6.58885,6.48943,,62
1632,,,,MAIRIE ISSIA,-6.58888,6.48946,,62
1633,,,,CSU COM ANONO,-3.973861,5.345831,,7
1634,,,,DISPENSAIRE RURAL KUEPLEU,-7.934995,7.225497,,107
1635,,,,HOPITAL GENERAL DE TAI,-7.453554,5.871167,,33
1636,,,,CSU GRAND BEREBY,-6.594912,4.766078,,98
1637,,,,CSU HIRE(DIVO),-5.294697,6.185234,,77
1638,,,,SIEGE DU DISTRICT APA,-4.025685,5.390788,,6
1639,,,,CENTRE AIF,-4.006957,5.327101,,7
1640,,,,CS BAE YOPOUGON,-4.054146,5.326742,,1
1641,,,,DISTRICT SOUBRE,-6.59064,5.790818,,90
1642,,,,HG TEHINI,-3.661857,9.693192,,27
1643,,,,CSU GABIADJI,-6.549564,5.060743,,98
1644,,,,CROIX ROUGE PORT-BOUET,-3.900429,5.240388,,9
1645,,,,GENDARMERIE ABOBO,-4.019747,5.436753,,3
1646,,,,CSU AKOUEDO VILLAGE,-3.92268,5.35825,,7
1647,,,,CHR GAGNOA,-5.94394,6.12797,,44
1648,,,,CHR DE TOUBE,-7.68656,8.28386,,14
1649,,,,MARCHE TOULEPLEU,-8.416396,6.582792,,34
1650,,,,SIEGE DISTRICT ADJAME ATTECOUBE PLATEAU,-4.039878,5.345378,,6
1651,,,,SIEGE DE LA BAD,-4.021953,5.33127,,6
1652,,,,TOUR C,-4.023386,5.333142,,6
1653,,,,HOPITAL GENERAL  TAABO,-5.070732,6.270234,,13
1654,,,,HOPITAL GENERAL MANKONO,-6.19085,8.06838,,26
1655,,,,CSR FIZANLOUMA,-6.08488,8.0375,,26
1656,,,,CSU TIENINGBOUE,-5.73763,8.21433,,26
1657,,,,CSU BOUANDOUGOU,-5.67148,8.2269,,26
1658,,,,HG DANANE,-8.15401,7.26348,,105
1659,,,,CSU SARHALA,-6.1718,8.41886,,26
1663,,,,CSU MEAGUI,-6.558535,5.406897,,92
1664,,,,DISTRICT SANITAIRE SAN PEDRO,-6.637683,4.745821,,98
1665,,,,CSR YOUNDOUO,-2.955258,8.824652,,27
1666,,,,SIEGE DISTRICT BOUNA,-2.996315,9.268834,,27
1667,,,,CSR BOUKO,-3.172865,9.475826,,27
1670,,,,CSU MARANDALLAH,-5.92514,8.44598,,26
1671,,,,CSR VRIDI AKO,-4.033647,5.257173,,9
1672,,,,DISTRICT BOUNDIALI,-6.48103,9.513879,,17
1673,,,,LYCEE MODERNE ISSIA,-6.583731,6.487213,,62
1674,,,,CSU-D PUBLIC IBOGUHE,-6.842104,6.55001,,62
1675,,,,CSR AVAGOU,-4.329509,5.213632,,54
1676,,,,DISPENSAIRE RURAL TOMBOUGOU,-6.502447,9.571611,,17
1677,,,,CSU BONGO,-3.565482,5.480825,,102
1678,,,,CSR ONO SALCI,-3.52063,5.403858,,102
1679,,,,HOPITAL GENERAL MADINANI,-6.946391,9.610842,,72
1680,,,,CSU YAOU,-3.627058,5.242262,,102
1681,,,,ASSOYAM (GRAND BASSAM),-3.742956,5.195632,,102
1682,,,,PRISON (GRAND BASSAM),-3.742355,5.197598,,102
1683,,,,WARF (GRAND BASSAM),-3.735531,5.19495,,102
1684,,,,MODESTE (GRAND BASSAM),-3.79929,5.242037,,102
1685,,,,CSR LARABIA (GRAND BASSAM),-3.458236,5.338262,,102
1686,,,,N SA HOTEL (GRAND BASSAM),-3.741854,5.218102,,102
1687,,,,HOPITAL GENERAL AYAME,-3.158246,5.603718,,100
1688,,,,CMS MIGRONS (ABOISSO),-3.202144,5.474585,,100
1689,,,,CSR BABADOUGOU (ABOISSO),-3.351978,5.409856,,100
1690,,,,CSU ADAOU,-3.265612,5.425241,,100
1691,,,,DISPENSAIRE URBAIN (ABOISSO),-3.203212,5.471546,,100
1692,,,,SOKOURA (ABOISSO),-3.205087,5.471929,,100
1693,,,,CHR ABOISSO,-3.208035,5.470029,,100
1694,,,,CSU KOUAKRO,-2.90863,5.449139,,100
1695,,,,CSR TOUMANGUIE,-3.324029,5.329401,,100
1696,,,,HOPITAL GENERAL KANI,-6.60259,8.478983,,112
1697,,,,CSR MACA (ABOISSO),-3.206403,5.4692,,100
1698,,,,CSR PACOBO,-4.931871,6.167461,,13
1699,,,,CENTRE ESPOIR (GRAND BASSAM),-3.745317,5.208463,,102
1700,,,,MOOSSOU OUEST (GRAND BASSAM),-3.725714,5.224079,,102
1702,,,,AFFIENOU (ABOISSO),-2.926342,5.409463,,100
1704,,,,HOPITAL GENERAL TIASSALE,-4.824166,5.890801,,13
1705,,,,CSR AHONDO (TIASSAL),-5.149606,6.308603,,13
1706,,,,CSR ABIE,-3.926368,5.865226,,73
1707,,,,CENTRE SANTE AHOUTOUE,-3.806033,5.47584,,75
1708,,,,DISPENSAIRE RURAL MOPODJI,-3.60322,5.730134,,75
1709,,,,DISPENSAIRE RURAL YAKASSE COMOE,-3.616176,5.562298,,75
1710,,,,CSU MEMNI,-3.742428,5.508964,,75
1711,,,,DISPENSAIRE RURAL NZEREKOU,-3.417556,5.646128,,75
1712,,,,DABRE,-3.745179,5.393578,,73
1713,,,,CSR ANANGUIE,-3.768627,6.225577,,73
1714,,,,CSR LOBO AKOUDZIN,-3.823806,5.852941,,73
1715,,,,DISPENSAIRE YAFFO,-3.933868,6.541232,,73
1716,,,,AHOUSSIKRO (ABOISSO),-3.294982,5.479124,,100
1717,,,,AMOIKONKRO (ABOISSO),-3.221516,6.062813,,100
1718,,,,CSU AYENOUAN,-3.323805,5.39181,,100
1719,,,,CSR KOTIESSOU,-5.056732,6.177861,,13
1720,,,,DISPENSAIRE RURAL N DENOU,-5.027667,6.17036,,13
1721,,,,CSR KASSASSO,-4.766003,5.97127,,13
1722,,,,CENTRE SANTE COSROU,-4.659439,5.321639,,53
1723,,,,CSR MIADZIN,-3.901595,6.047243,,73
1724,,,,CSR MOTOBE,-3.638159,5.30748,,102
1725,,,,CSR KOUTOUKRO 2,-3.538459,5.549283,,100
1726,,,,CSR BOUAPE,-3.793908,6.244547,,73
1727,,,,CSR ABOULIE,-2.91986,5.453341,,100
1728,,,,CSR SOKROGBO,-4.963717,5.927437,,13
1729,,,,CSR BAKRO,-3.244519,5.502726,,100
1730,,,,CSU N ZIANOUAN,-4.822229,6.010633,,13
1731,,,,HOPITAL GENERAL BOCANDA,-4.502987,7.061562,,86
1732,,,,CSR DIDAKAYABO,-4.468911,6.903761,,86
1733,,,,CSU N ZECREZESSOU,-4.279496,7.06984,,86
1734,,,,CSU KOUADIOBLEKRO,-4.317311,6.92919,,86
1735,,,,CSR ABEANOU,-4.225716,6.970796,,86
1736,,,,CSU BENGASSOU,-4.495643,6.798904,,86
1737,,,,DISPENSAIRE RURAL KONANLEKIKRO,-4.334979,7.019014,,86
1738,,,,DISPENSAIRE RURAL AMOROKI,-4.162176,7.08741,,86
1739,,,,CSR ASSIKA KAYABO,-4.399368,6.867669,,86
1740,,,,DISPENSAIRE RURAL GBONOU,-4.402632,7.148943,,86
1741,,,,UNIVERSITE FELIX HOUPHOUET BOIGNY,-3.98594,5.34675,,7
1742,,,,CSU AKOUEDO ATTIE,-3.926661,5.356383,,7
1743,,,,PMI COCODY,-4.000948,5.334188,,7
1744,,,,CSR SINGROBO,-4.921813,6.091099,,13
1745,,,,CSR KONDIEBOUMA,-4.542791,6.22183,,13
1746,,,,CSU ABY,-3.168933,5.298357,,100
1747,,,,SCB BROUKRO,-4.914636,5.987297,,13
1748,,,,CSR MOUYASSUE,-3.094896,5.369577,,100
1749,,,,CHR TOUBA,-7.686357,8.285027,,14
1662,,,,CSU MARANDALLLAH,-5.92714,8.4432,,26
1750,,,,CSR APKASSANOU,-4.412973,7.421585,,65
1751,,,,CSR BROUBOU,-4.824473,5.72401,,13
1752,,,,CENTRE MEDICAL DU TRESOR,-4.022615,5.32699,,6
1753,,,,HOPITAL GENERAL DIDIEVI,-4.898232,7.12489,,20
1754,,,,CENTRE MEDICAL PAUL ANTOINE BOHOUN,-4.02134,5.32717,,6
1755,,,,VACCINODROME BAE,-4.055592,5.330555,,1
1756,,,,DISPENSAIRE RURAL ASSINZE,-5.141139,6.533112,,22
1757,,,,CSU BINAO,-4.661384,5.801391,,13
1758,,,,CSR TOUNZOUEBO,-5.245272,7.071051,,23
1759,,,,CSR DJAMALABA,-5.341252,6.922931,,23
1761,,,,CSR TOUMBOKRO,-5.489488,6.924404,,23
1762,,,,CSR DJAMALABO,-5.33825,6.921826,,23
1763,,,,CSR ZAMBAKRO,-5.407089,6.730864,,23
1764,,,,CSR LOGBAKRO,-5.204371,6.739185,,23
1765,,,,DISPENSAIRE RURAL AHOKOI,-3.739523,6.158575,,73
1766,,,,DISPENSAIRE RURAL BENDIEKOMENANKRO,-3.974886,7.203076,,65
1767,,,,DISPENSAIRE RURAL BALEKOKRO,-4.034211,7.251044,,65
1769,,,,HG BOCANDA,-4.502392,7.061681,,86
1770,,,,CENTRE DE SANTE DE LA NOUVELLE BAE,-4.08543,5.35955,,2
1771,,,,DISTRICT MBENGUE,-5.887064,10.035946,,96
1772,,,,DISTRICT SANITAIRE BLOLEQUIN,-8.003081,6.569804,,31
1773,,,,CSU BOBI,-6.549604,8.159082,,111
1774,,,,CSU DIARABANA,-6.607516,8.189232,,111
1775,,,,CSR DUALLA,-6.542333,8.12061,,111
1776,,,,CSU SIFIE,-6.929383,7.98259,,111
1777,,,,CSR KAMALO,-7.020165,7.857036,,111
1778,,,,CSR WOROFLA,-6.907537,8.275963,,111
1779,,,,CSR GBEMAZO,-6.940435,8.513841,,111
1780,,,,SSSU-SAJ SEGUELA,-6.669449,7.961224,,111
1781,,,,CSU MASSALA,-6.4364,7.898155,,111
1782,,,,CSU ANYAMA,-4.054842,5.485138,,5
1783,,,,CSU AGHIEN,-4.000697,5.373903,,7
1784,,,,DISPENSAIRE MEDICAL M'POUTO,-3.955064,5.3252,,7
1786,,,,CLINIQUE SOUMA KOUMASSI,-3.968858,5.28828,,8
1787,,,,SSSU-SAJ ODIENNE,-7.56293,9.502196,,71
1788,,,,CLINIQUE SAINT PAUL,-3.992411,5.397669,,4
1789,,,,HOPITAL NABINTOU CISSE DANANE,-8.160035,7.258851,,105
1790,,,,DISPENSAIRE RURAL TOURO,-5.071966,7.996039,,59
1791,,,,CLINIQUE NOTRE DAME DE FATIMA,-4.015285,5.42032,,4
1792,,,,CSU BODOKRO,-5.474131,7.881841,,37
1793,,,,CSU MARABADJASSA,-5.435373,8.09163,,37
1794,,,,SIEGE DISTRICT SANITAIRE BEOUMI,-5.574082,7.675166,,37
1795,,,,PMI BEOUMI,-5.57218,7.675801,,37
1796,,,,CSU N GUESSANKRO,-5.440802,8.006892,,37
1797,,,,SERVICE MEDICO SOCIAL PALMAFRIQUE ELOKA,-3.800986,5.315893,,7
1798,,,,CSU COM AKEIKOI,-4.010754,5.460714,,3
1799,,,,ROND POINT SAMAKE,-4.006838,5.415392,,3
1800,,,,HOPITAL GENERAL OUME,-5.420723,6.377804,,46
1801,,,,INSTITUT NATIONAL DE LA SANTE PUBLIQUE,-4.027166,5.338856,,6
1802,,,,HG SAMATIGUILA,-7.564958,9.820844,,71
1803,,,,CENTRE MEDICAL MILITAIRE DE DALOA,-6.454975,6.871375,,61
1805,,,,CSR FOTOKOUAMEKRO,-5.13420251718528,7.570050340162454,,41
1806,,,,CSU ASSIRIKRO,-5.165842639225351,7.593746142537769,,41
1807,,,,CSR KAHIN,-7.640272494443991,6.917136216015336,,55
1808,,,,CENTRE SOCIAL DE DIVO,-5.349919578078758,5.837389794790182,,77
1809,,,,HOPITAL GENERAL SINFRA,-5.915208500160737,6.623177818398576,,81
1810,,,,CSU KONONFLA,-5.595773782441317,6.655233600032707,,81
1811,,,,CSU BAZRE,-6.520218287982219,7.60045704938311,,81
1886,,,,CSR DJAPADJI,-6.820925193034797,5.299026284515086,,98
1812,,,,CSU KOUETINFLA,-6.0506137003160365,6.617840373141521,,81
1813,,,,SIEGE DISTRICT SINFRA,-5.914617073042151,6.6232231116490246,,81
1814,,,,CSR MANOUFLA,-5.627828824356389,6.624023952264063,,81
1815,,,,CSR YAOKRO,-5.841396853804447,6.72629125206236,,81
1816,,,,CSR BINOUFLA,-5.884258887228131,6.675166254775839,,81
1817,,,,CSR HUAFLA,-5.80088115080461,6.564717489084643,,81
1818,,,,CSR DJENEDOUFLA,-5.809427670798916,6.6518476979466,,81
1819,,,,CSR GBRIZOKRO,-6.082730531356341,6.552873008797528,,81
1820,,,,CSR BRUNOKRO,-6.015688319527917,6.706591780121169,,81
1821,,,,DR TIEZANKRO 3,-5.744623401929963,6.623974254379068,,81
1822,,,,PMI SINFRA,-5.9143864055856,6.619834094914915,,81
1823,,,,CSR KPANGBASSOU,-5.773660314466453,6.715813657397534,,81
1824,,,,CSR KPESSO,-5.877345070811273,8.408916678048739,,26
1825,,,,CSR KAMORO,-5.732316770470292,8.308345910304176,,26
1826,,,,CSR OUEDALLAH,-5.784587901802834,8.175663926486,,26
1827,,,,CSR  SAMOROSSO-TOMONO ,-6.1020055026798845,8.324115383357258,,26
1828,,,,CSR DIALAKORO,-5.847628705954706,8.189879839361641,,26
1829,,,,CSR DANTOGO,-6.2200529492481245,7.8129173298371,,26
1830,,,,CSR NINAKIRI,-5.8065801581444765,8.181575656057422,,26
1831,,,,CSR DANDOUGOU,-5.90231542856235,8.384049979706658,,26
1832,,,,DISPENSAIRE RURAL FIZANKORO,-6.197908993992927,8.465218685623679,,26
1833,,,,DISPENSAIRE RURAL DIENEDIAN,-6.12054017251252,8.08137197804893,,26
1834,,,,CSR WONGUE,-6.574684410026103,8.325131720496573,,112
1835,,,,CSR MANABRI,-6.615136917998043,8.662460238712349,,112
1836,,,,CSU FADIADOUGOU,-6.6187642118797765,8.700875671984024,,112
1760,,2022-10-27 13:49:32.621217 +00:00,,CSR BONZI,-5.534869,6.918344,,23
1837,,,,DISPENSAIRE RURAL BAFRITOU,-6.59719567022624,8.794889240559721,,112
1838,,,,CSU MORONDO,-6.7838464398622165,8.953453091247892,,112
1839,,,,DISPENSAIRE RURAL NOTOU,-6.870603046794857,9.026191793587998,,112
1840,,,,DISPENSAIRE RURAL DIOMANDOUGOU,-6.859901335319506,8.840332594663982,,112
1841,,,,CSR MADJI,-6.863917566952584,8.732519975417576,,112
1842,,,,CSU DJIBROSSO,-6.9984178469809875,8.765453679116437,,112
1843,,,,DISPENSAIRE RURAL KOBADALLAH,-5.912362454385676,8.25413377609112,,26
1844,,,,DISPENSAIRE RURAL SIRHIO,-6.045525478836684,8.401139580249213,,26
1845,,,,DISPENSAIRE RURAL KARAMOKOLA,-6.1825531505371165,8.098475002373895,,26
1846,,,,DISPENSAIRE URBAIN OUSSOUGOULA,-6.180129077365084,8.02972188656407,,26
1847,,,,DISPENSAIRE RURAL BADA,-5.517016065122768,8.125704559516285,,26
1848,,,,CSR NAKARA,-5.634598540927988,8.259575523861281,,26
1849,,,,DISPENSAIRE RURAL DAWARA,-6.076202510027718,8.284574208401915,,26
1850,,,,DIPENSAIRE RURAL MISSIRIKORO,-6.140344179147674,8.510792551882133,,26
1851,,,,CSR BIELOU,-6.203673180068505,8.54543480175121,,26
1852,,,,SSSU-SAJ MANKONO,-6.190173780636641,8.06141080316738,,26
1853,,,,PMI MANKONO,-6.19133477388126,8.062539490815828,,26
1854,,,,DISPENSAIRE RURAL KOUASSIDOUGOU,-5.8965188052642175,8.342411594081682,,26
1855,,,,DISPENSAIRE RURAL NIANKABI,-5.964522822401908,8.340922841825114,,26
1856,,,,DISPENSAIRE RURAL LIGBISSO,-5.653628734891436,8.130641205509091,,26
1857,,,,DISPENSAIRE RURAL MISSIDOUGOU,-6.074589516266336,8.566907194025424,,26
1858,,,,DISPENSAIRE RURAL PANIKO,-5.978916586124156,8.52518037028046,,26
1859,,,,CSCNDC MARANDALLAH,-5.921754232859595,8.443066863505058,,26
1860,,,,SIEGE DISTRICT SANITAIRE KANI,-6.601788174742506,8.477827618322923,,112
1861,,,,DISPENSAIRE RURAL BANANDJE,-6.746532596334438,8.817425839389061,,112
1862,,,,DISPENSAIRE RURAL SATAMA,-5.9655097083217345,8.323617547809738,,26
1863,,,,DISPENSAIRE RURAL SOMOKORO,-6.000530414746808,8.481380518318922,,26
1864,,,,CSU DOGBO,-7.050341870610012,4.944639376875776,,98
1865,,,,CSR DJIHIMBO,-7.2181885631171605,4.652250200838194,,98
1866,,,,CSR OUEOULO,-7.081918652219797,4.665829485278154,,98
1867,,,,CSR KLOTOU,-7.189458144314376,4.5553838874916455,,98
1868,,,,CSR HEKE VILLAGE,-7.090704020962479,4.7136683692696755,,98
1869,,,,CSR NERO BROUSSE,-6.9228755355356935,4.809938777163667,,98
1870,,,,CSR ADJAMENE,-6.853239557525458,4.763660220941089,,98
1871,,,,CMS SOGB,-7.087265143247261,4.677402963526913,,98
1872,,,,CSR KAKO,-7.015372401500068,4.772485086669492,,98
1873,,,,CSR ROC,-6.963929485115759,4.618770736151291,,98
1875,,,,CSR TOUIH,-6.533502775167467,5.263703852298265,,98
1876,,,,CSR MENE CENTRE,-6.4340801171319875,5.053673751479487,,98
1877,,,,CSR GROBONOU DAN,-6.40063774602906,5.060376476919075,,98
1878,,,,DISPENSAIRE RURAL NONOUA,-6.369887761811523,5.0187126752483,,98
1879,,,,CSR GNITY ECOLE,-6.5605792967277035,5.162213419421127,,98
1880,,,,CSR KPOTE,-6.532159184468575,4.871187277591588,,98
1881,,,,CSR BLAHOU,-6.560245722313141,4.924700861745257,,98
1882,,,,CSR NABOVILLE,-6.615098209069207,5.098072037916497,,98
1883,,,,CSR WATTE,-6.767041225165208,4.93264981830194,,98
1884,,,,CSR MOUSSADOUGOU,-6.341966882090556,4.914205999322976,,98
1885,,,,CSU DOBA,-6.833388529838725,5.195194197504162,,98
1887,,,,CSR DAGADJI,-6.814201107559209,5.124631281431092,,98
1888,,,,CSR GAGNY,-6.74382874987586,5.050320644574122,,98
1889,,,,CSR SAFAMANOIS,-6.033085801274945,5.132977688034296,,42
1890,,,,CSU MEDON,-6.215217202366067,5.2045177102153986,,98
1891,,,,CSR GLIGBEUADJI,-6.706086292837101,5.203701255042164,,98
1892,,,,CSR GOH,-6.635307898801976,5.232255475199084,,98
1893,,,,MATERNITE ZIMBABWE,-6.665512821207281,4.760825954590947,,98
1894,,,,MATERNITE HKB SAN PEDRO,-6.651887732536951,4.778210667342524,,98
1895,,,,CENTRE DONATA,-6.654898527933744,4.737366235037548,,98
1896,,,,MATERNITE TERRE ROUGE,-6.663021989385995,4.771465346282777,,98
1897,,,,HOPITAL GENERAL KORO,-7.461063351381899,8.554153399096789,,15
1898,,,,PMI BINGERVILLE,-3.891068337611405,5.356349894561207,,7
1899,,,,CSR AKOUE AGBAN,-3.8542565829076123,5.310871784403647,,7
1901,,,,CSU-D PUBLIC HKB ISSIA,0,0,,62
1902,,,,CSU-DM PUBLIC TAPEGUIA,-6.511640622239451,6.386643380724156,,62
1903,,,,CSU-DM PUBLIC NAMANE,-6.709948378722087,6.389869063374588,,62
1904,,,,CSU-I PUBLIC LUEHOUAN,0,0,,62
1905,,,,CSU-D PUBLIC NAHIO,-6.226499251377944,6.380547801418966,,62
1907,,,,CSU-D PUBLIC NIAKA,-6.316018358739034,6.533820517963283,,62
1908,,,,CSU-D PUBLIC BOGUEDIA,-6.521231565866746,6.636296635483659,,62
1909,,,,CSU-DM PUBLIC SAIOUA,-6.276499007759004,6.4905754609357675,,62
1910,,,,DISTRICT SANITAIRE ISSIA,-6.589051838193884,6.492442740252273,,62
1911,,,,CSR DADEGUHE,-6.7591317067148236,6.521252997166489,,62
1912,,,,CSU-D PUBLIC  IBOGUHE,-6.845451519675635,6.550364882075954,,62
1913,,,,DISTRICT SANITAIRE TIASSALE,-4.825693666820046,5.887735766040338,,13
1914,,,,CSU N DOUCI 1,0,0,,13
1915,,,,CSU N DOUCI 2,0,0,,13
1916,,,,HOPITAL GENERAL ST JEAN BODO,-4.693207871922337,5.898074619411136,,13
1917,,,,CSU N ZIANOUAN 1,-4.822229004147143,6.000785390887036,,13
1918,,,,CSR ATTIGUEHI,-4.549793842866571,6.067095336222777,,13
1919,,,,CSU PACOBO,-4.936915826598478,6.165004887431817,,13
1920,,,,HOPITAL GENERAL TAABO,-5.070807015578052,6.269566534627113,,13
1921,,,,CSU ABEBROUKOUA,-4.054712943840604,5.4851695525432325,,5
1922,,,,CSU AZAGUIE,-4.054712943840604,5.4851695525432325,,5
1923,,,,HOPITAL GENERAL SEGUELON,-7.13074237666909,9.356108483410045,,72
1924,,,,CSU FENGOLO,-7.393574167788915,6.7872174980361475,,72
1925,,,,CSR KOKOUN,-7.039003272526618,9.494752687032362,,72
1926,,,,CSR LINGOHO,-7.318918632358116,9.548600257278785,,72
1927,,,,CSR NGOLOBLASSO,-7.227002704099843,9.68167504421521,,72
1928,,,,CSR GBONGAHA,-6.898803408081171,9.118795296557055,,72
1929,,,,CSR SIREBA,-6.953419392858723,9.196253087311067,,72
1930,,,,CSR DABADOUGOU,-7.159997748712421,9.584613022808417,,72
1931,,,,CSR N GAPIE,-6.827322351176041,9.612367125818439,,36
1932,,,,HOPITAL GENERAL DIANRA,-6.253581290358303,8.948717099602627,,25
1934,,,,SIEGE DISTRICT DIANRA,-6.257891493167313,8.957727347806959,,25
1935,,,,CSU MANADOUN,-4.05491039740626,5.512617288364652,,5
1936,,,,CSR SONONZO,-6.132314902598728,8.627317238221115,,25
1937,,,,CSR OUAHIERE,-6.455273674849184,8.972590765451297,,25
1939,,,,CSR FARABA,-6.2513452221591495,8.653743499737708,,25
1940,,,,CSR LENGUEDOUGOU,-6.242756767954085,8.99131073389909,,25
1941,,,,CSR YERETIELE,-6.362882688107494,9.120622437035639,,25
1942,,,,CSU GBON-HOUYE,-8.14082641162156,7.297554844747691,,105
1943,,,,CSR SIENKOUNON,-6.4637728038339475,9.03251031063246,,25
1944,,,,CSR DALAGBE,-6.306231131429466,9.077942336772779,,25
1945,,,,CSU CONFESSIONNEL JOSEPH ALLAMANO,-6.237889565747758,8.76454589903553,,25
1946,,,,CSU DIANRA-VILLAGE,-6.2430420893448115,8.759715948893739,,25
1947,,,,CSU BILIMONO,-4.146983731433216,8.921596369199964,,110
1948,,,,CSR KARABIRI,-6.9416397459226715,9.048675516755571,,72
1949,,,,CSU MINIGNAN,-7.5642825913190155,9.846843627556703,,36
1950,,,,CSR ZANGOBAHA,0,0,,72
1952,,,,SSSJ-SAJ ODIENNE,-7.56295542558898,9.501971394619105,,71
1953,,,,CSR KROUKRO MAFELE,-7.792776388620004,9.525908014913922,,71
1954,,,,DISPENSAIRE RURAL NIAMASSO,-7.705562794198473,9.501635511580716,,71
2774,,,,CSU KOKO,0,0,,114
2775,,,,CSR BLAGBOKAHA,0,0,,94
2776,,,,CSR KIEMOU,0,0,,94
1955,,,,DISPENSAIRE RURAL SIRANA,-7.842524007666905,9.419635119762928,,71
1956,,,,CSR DABADOUGOU MAFELE,-7.871750678957379,9.741876954117556,,71
1957,,,,CSR KIMBIRILA SUD ,-7.609730520880843,9.704749439340484,,71
1958,,,,CSR DJIRILA,-7.618300512810625,10.118805487307554,,71
1959,,,,DISPENSAIRE RURAL KERE,-7.711487100739555,9.78445476664354,,71
1960,,,,CSR SAMANGO,-7.732009786414486,9.663195724278822,,71
1961,,,,DISPENSAIRE RURAL TOUGOUSSO,-7.734634962128437,9.624760318010322,,71
1962,,,,DISPENSAIRE RURAL IRADOUGOU,-7.796148395274352,9.704097701096398,,71
1963,,,,CSR SALONKOURANI,-7.803334976589239,9.724513670534055,,71
1964,,,,CSU TIEME,-7.321465833750566,9.546024959315819,,71
1965,,,,DISTRICT ZUENOULA,-6.052242282481637,7.440754528062328,,82
1966,,,,DISPENSAIRE RURAL TAHANSO,-7.299992436904908,9.597353064430434,,71
1967,,,,CSR ZEGBAO,-7.274198549424187,9.436594060827769,,71
1968,,,,HOPITAL GENERAL SAMATIGUILA,-7.56522582297101,9.820829959112366,,71
1969,,,,DISTRICT SANITAIRE SAKASSOU,-5.269986361062408,7.446718208222105,,41
1970,,,,DISPENSAIRE RURAL TISSERILA,-7.6447281651072,9.942347232546,,71
1971,,,,INFIRMERIE GENDARMERIE ODIENNE,-7.5578388398947265,9.499540237925116,,71
1972,,,,INHP ODIENNE,-7.563135452143195,9.498160702500291,,71
1973,,,,DISPENSAIRE RURAL MASSADOUGOU,-7.375220754074498,9.102241755931948,,71
1974,,,,DISPENSAIRE RURAL TIEKORODOUGOU,-7.266848264574529,9.026758110111532,,71
1975,,,,CSU DIOULATIEDOUGOU,-7.240641580417807,8.981080395352103,,71
1976,,,,DISPENSAIRE RURAL NAFANA SIENSO,-7.435352148457594,9.26227859081192,,71
1977,,,,DISPENSAIRE RURAL FARAKO,-7.501664568870133,9.317466850103413,,71
1978,,,,DISPENSAIRE RURAL BOUGOUSSO,-7.8239257722712265,9.255444914540686,,71
1979,,,,DISPENSAIRE RURAL MAMOUROUDOUGOU,-7.343842787122065,8.719630932882747,,71
1980,,,,DISPENSAIRE RURAL FEREMANDOUGOU,-7.572666712683237,8.961053900253425,,71
1981,,,,CSR SOKORODOUGOU,-7.687584837023552,9.306871816356825,,71
1982,,,,DISPENSAIRE RURAL TOMBA-BOHISSO,-7.593922320877138,9.094769459721798,,71
1983,,,,CSU BAKO,-7.609508842648637,9.139763324832424,,71
1984,,,,DISPENSAIRE RURAL NIENESSO,-7.614168963974024,9.362078925336116,,71
1985,,,,CSR KAHANSO,-7.609807589022237,9.254792714829017,,71
1986,,,,DISPENSAITRE RURAL GBAHANLA,-7.606550292770481,9.580918429807838,,71
1987,,,,HOPITAL GENERAL GBELEBAN,-8.127533029639416,9.583479221590345,,71
1988,,,,DISPENSAIRE RURAL SANDJOUGOUNA,-7.851706949113195,9.618248166269977,,71
1989,,,,CSR NIAMANA,-7.883971632349476,9.587447162452005,,71
1990,,,,CSR KABALA,-7.916560269552841,9.552488766205057,,71
1991,,,,DISPENSAIRE RURAL BALALA,-7.984472398217554,9.444002009876954,,71
1992,,,,CSU SEYDOUGOU,-7.978578467305745,9.51216778390158,,71
1993,,,,DISPENSAIRE RURAL MAMOUGOULA,-7.636467323691402,9.820748627251877,,71
1994,,,,DISPENSAIRE RURAL SANOGOBRA MAFELE,-7.692435374666608,9.857731519533411,,71
1995,,,,YAKAFISSA ODIENNE,-7.576009828102082,9.516477267954778,,71
1996,,,,BROMAKOTE ODIENNE,-7.5538226056623445,9.496487284130474,,71
1997,,,,JERUSALEM ODIENNE,-7.573213532876366,9.490232263091675,,71
1998,,,,CS PIETRO BONILLI,-7.557374821081328,9.518873463021999,,71
1999,,,,PMI-MATERNITE ODIENNE,-7.553353522714529,9.495557809491517,,71
2000,,,,DISPENSAIRE RURAL FOULA,-7.790939990700676,9.340838715652382,,71
2001,,,,DISPENSAIRE RURAL KONA,0,0,,71
2002,,,,CSR FARALA,-7.568439185704933,9.9786689598324,,71
2003,,,,CENTRE SANTE MACO,0,0,,71
2004,,,,BSNO ODIENNE,0,0,,71
2005,,,,DISPENSAIRE RURAL KENINGOUARA,-7.661132372756992,9.971780783639941,,71
2006,,,,HG PUBLIC KOUNAHIRI,-5.836908421977591,7.786191379485097,,24
2007,,,,CSU YOCOBOUE,-5.104687938081223,5.267947979411729,,78
2008,,,,CSU LAUZOUA,-5.318667,5.205564,,78
2009,,,,CSU DAIRO DIDIZO,-5.469231261253293,5.65671063216468,,78
2010,,,,CSU HERMANKONO DIES,-5.367370638441804,5.577693548805292,,78
2011,,,,CSU TIEGBA,-5.140694932108158,5.597599000140725,,78
2012,,,,BROUDOUKOU PENDA,-5.517702215567239,5.5257890125094296,,78
2013,,,,SIEGE DISTRICT SANITAIRE GUITRY,-5.243696935102501,5.521438408757139,,78
2014,,,,DISPENSAIRE RURAL ANOUMABOU,-5.106088586524066,5.621544648456672,,78
2015,,,,DISPENSAIRE RURAL BABOKON APPOLO,-5.305264442156267,5.52635854915592,,78
2016,,,,CSR COCHEM DIDA,-5.404943882099903,5.551308615527536,,78
2017,,,,CSR KOUTA,-5.230626644213948,5.48613726279863,,78
2018,,,,CSR KOFESSO DIOULABOUGOU,-5.068983650595775,5.579597791733232,,78
2019,,,,DISPENSAIRE RURAL BOUBOUDI,-5.377174679868448,5.6133019947954015,,78
2020,,,,DISPENSAIRE RURAL TEHIRI,-5.244079063745182,5.4728106344503376,,78
2021,,,,PMI GUITRY,-5.243519909298341,5.521167427626159,,78
2022,,,,CSR GNAMBOUASSO,-5.243615513503828,5.600750479364979,,78
2023,,,,CSR DILOLIGBI,-5.247938517087708,5.586494933019533,,78
2024,,,,CHR DALOA,-6.440065330169159,6.883351449507969,,61
2025,,,,CSU GARAGE,-6.440385206633344,6.856148117602921,,61
2026,,,,MATERNITE MUNICIPALE DALOA,-6.460474112345353,6.888446274688088,,61
2027,,,,SSSU-SAJ 2 DALOA,-6.443389302222429,6.897831575571867,,61
2028,,,,PMI DALOA ,-6.4498708605407025,6.888692775442117,,61
2029,,,,SIEGE DISTRICT SANITAIRE ORLY,-6.454800761550898,6.871839322332653,,61
2030,,,,HOPITAL ISLAMIQUE,-6.446631059748176,6.854113910467693,,61
2031,,,,CROU DALOA,-6.44578813574731,6.881942798100033,,61
2032,,,,DISPENSAIRE RURAL SERIA,-6.394523754102521,6.780490089258707,,61
2033,,,,CSR TCHEBLOGUHE,-6.487189243018107,6.689094176833392,,61
2034,,,,CSR SAYKRO,-2.7844405290332146,5.274925668733058,,103
2035,,,,DISPENSAIRE RURAL FRAMBO,-2.960380612502597,5.131518611920016,,103
2036,,,,CSR EBOKO,-3.0860049388310506,5.150500412207459,,103
2037,,,,MOSQUEE FATIMA ANYAMA,-3.9305830215460853,5.3350377707960215,,5
2038,,,,INHP SOUBRE,-6.592524006716713,5.790718405361386,,90
2039,,,,DISPENSAIRE RURAL NIOUBOUA,-6.4384269034753965,6.702270215951632,,61
2040,,,,DISPENSAIRE RURAL TAHIRAGUHE,-6.401888735528146,6.798855641803796,,61
2041,,,,CSU ZAIBO / GAMINA,-6.659262500904455,6.974608329347991,,61
2042,,,,CSR ZAHIA,-6.5753272731621015,6.917099227509002,,61
2043,,,,DISPENSAIRE RURAL KIBOUO,-6.513779406882701,6.829041539594048,,61
2044,,,,DISPENSAIRE RURAL BRIBOUO,-6.531074745019672,6.863809069430482,,61
2045,,,,CSR KEIBLA,-6.577359302126191,6.847792707024536,,61
2046,,,,CSR DIGBAPIA,-6.628431216651169,6.831202241555548,,61
2047,,,,SIEGE DISTRICT SANITAIRE BLOLEQUIN,-8.003048,6.569592,,31
2048,,,,CSR YOKOREA,-6.646892445839733,6.6988228924776525,,61
2049,,,,CSR ZOBOUA LABELLE,-6.549844423314227,6.702555069448167,,61
2050,,,,CSR GOKRA,-6.577981374270476,6.684952698597404,,61
2051,,,,CSR GBOGUHE,-6.585440197186943,6.75636882215723,,61
2052,,,,CSU GONATE,-6.236485623136834,6.902331443085461,,61
2053,,,,CSR BANDIAHI,-6.184483299616588,7.19555419242768,,61
2054,,,,CSR LUENOUFLA,-6.23573498239105,7.074908584814923,,61
2055,,,,CSU BEDIALA,-6.3033644413734375,7.173752682984691,,61
2056,,,,CSR ZALIOHOUAN,-6.239490072598588,6.794530858411006,,61
2057,,,,DISPENSAIRE RURAL BIDIAHOUAN,-6.2355800393248275,6.615145845046836,,61
2058,,,,CSR CHANTIER GBOPROUYA,-6.286109788575202,6.710593698922279,,61
2059,,,,CSU GADOUAN,-6.155256622846414,6.6744057698557855,,61
2060,,,,CSR ZOKOGUHE,-6.457959756896918,7.069719876382837,,61
2062,,,,DISPENSAIRE RURAL TAPEGUHE,-6.789695682250328,6.523738624727819,,61
2063,,,, DISPENSAIRE RURAL TAGOURA,-6.455504611049256,6.9263153442191925,,61
2064,,,,CSR ZEPREGUHE,-6.3683715686779,6.907799177743162,,61
2065,,,,DISPENSAIRE RURAL DERAHOUAN,-6.410080112986527,6.900170881786625,,61
2066,,,,CSR DIGBA,-6.409930201358873,6.7576422652112145,,61
2067,,,,CSR GNAMANOU,-6.329693068701307,7.015973709703783,,61
2068,,,,DISPENSAIRE URBAIN DALOA,-6.452995332020863,6.874210202917059,,61
2069,,,,SSSU-SAJ 1 DALOA,-6.452346237405591,6.8744392146193904,,61
2070,,,,CENTRE DE SANTE DON TONINO,-6.4296332913436585,6.861870036956883,,61
2071,,,,DISPENSAIRE CATHOLIQUE NOTRE DAME DE LA PROVIDENCE,-6.455154573510897,6.897821250322427,,61
2072,,,,DISPENSAIRE RURAL LAGOGUHE,-6.436576525826892,6.697300057927914,,61
2073,,,,CSR ADAHIDOUGOU,-5.224180528607344,5.311552125778347,,78
2074,,,,SSSU SAJ SAN PEDRO,-6.646243713209777,4.768624422498892,,98
2075,,,,CMS CONSOLATA,-6.675777516716868,4.766510135836529,,98
2076,,,,CSR GBANGBOSSOU,-4.8208575231813455,7.539529227105914,,20
2077,,,,CSR YAAKRO,-5.034874691131975,7.403515277405413,,20
2078,,,,CSR KONDROKRO DJASSANOU,-4.8369944548412676,6.979595153498441,,20
2079,,,,CSR NDA AKISSOKRO,-4.8045136441539045,7.115579630739936,,20
2080,,,,DISPENSAIRE RURAL KONANSUIKRO,-4.9760248401157146,7.460031995892397,,20
2081,,,,CSR N GUYAKRO,-4.990624722162573,7.314940544172495,,20
2082,,,,CSR FERENTELLA,-7.801268987561433,8.23755691346561,,16
2083,,,,CSR GBELO,-7.758359063636928,8.148013262375287,,16
2084,,,,CSR MANDOUGOU,-7.8065364220406765,8.161628523716216,,16
2085,,,,CSR SABOUDOUGOU,-8.12358589555437,8.375248604163005,,16
2086,,,,CSR SANTA,-8.05777101534845,8.269025228456934,,16
2087,,,,CSR TIAHOUE,-7.88522105471923,8.15586291219742,,16
2088,,,,CSR KOONAN,-7.969913856055066,8.366142301311134,,16
2089,,,,HOPITAL GENERAL OUANINOU,-7.870927076822016,8.236964732170229,,16
2090,,,,CSR GANHOUE,-7.851470740627837,8.190407565001513,,16
2091,,,,CSR GOUEKAN,-7.843983471247991,8.033754378143392,,16
2092,,,,DISPENSAIRE RURAL ZABANAGORO,-8.16926473543695,8.272584537650017,,16
2093,,,,DISPENSAIRE RURAL KANANGO KPLI,-5.200730400062997,7.458457408308122,,41
2094,,,,CSR YABLASSOU,-5.2733681097844745,7.483758624095479,,41
2095,,,,CSR ANDO ZUME,-5.346297450433336,7.272381968321583,,41
2096,,,,CSR ANDOBO ALLUIBO,-5.302974448491346,7.403015684595501,,41
2097,,,,CSR SOUAFOUE DJANHAN,-5.373421107191959,7.589716615883226,,41
2098,,,,HOPITAL GENERAL SAKASSOU,-5.291270300224783,7.445807517380759,,41
2099,,,,CSU AYAOU SOKPA,-5.613167778887325,7.423272754593629,,41
2100,,,,CSR SOKOBO,-5.3050028611246285,7.59088400910091,,41
2101,,,,CSR SRAN BELAKRO,-5.589490445901126,7.354363288702079,,41
2102,,,,CSR ASSANDRE,-5.398594968197357,7.367983812983657,,41
2104,,,,CSR KONGOTI,-4.44227834571428,6.409220915629827,,66
2105,,,,DISTRICT SANITAIRE M BAHIAKRO,-4.337013804462884,7.458259997036674,,66
2106,,,,HOPITAL GENERAL KANIASSO,-7.511720941766195,9.815489754647398,,35
2107,,,,CSU GOULIA,-7.202884570563256,10.016646135765368,,35
2108,,,,CSU MAHANDIANA,-6.680184616099601,10.247106924223893,,35
2109,,,,CSR OUELLI,-6.814152012194583,10.356993691641229,,35
2110,,,,CSR GOUEYA,-6.938577212054623,10.310190028261818,,35
2111,,,,DISPENSAIRE RURAL WAHIRE,-6.9189953551866665,10.120025095300859,,35
2112,,,,DISPENSAIRE RURAL TAHARA,-7.122845054715019,10.155910423253653,,35
2113,,,,CSR MANADOUN,-7.323092819965681,9.80388096149762,,35
2114,,,,CSR BANANGORO,-7.386764343891637,9.815439322894408,,35
2115,,,,CSR SANANFERDOUGOU,-7.531864864968536,10.051079346082851,,35
2116,,,,DISPENSAIRE RURAL KORO OULE,-7.484368175936359,9.735644650816402,,35
2117,,,,DISPENSAIRE RURAL NAFADOUGOU,-7.563175201178107,9.945563499484898,,35
2118,,,,DISPENSAIRE RURAL KARALA,-7.570132148723931,9.975161696179214,,35
2119,,,,CSU GUESSABO,-6.953775182755838,6.739506322549064,,64
2120,,,,CSU GREGBEU,-6.729880388775332,6.801682389588236,,64
2121,,,,CSU DOMANGBEU,-7.036753006480061,7.0463216968591,,64
2122,,,,CSR DEDEGBEU,-6.765470778001043,6.711006896938936,,64
2123,,,,CSR DEBO,-6.777814761814863,6.677535565890921,,64
2124,,,,CSR DETROYA,-6.833384865086878,6.683968475187599,,64
2125,,,,CSR ZOUKPANGBEU,-6.769288293739179,6.794012054353017,,64
2126,,,, CSR BELLE VILLE,-6.843684282794798,6.869054350382961,,64
2127,,,,CSU BOROTOU,-7.492718246666142,8.732673293014873,,15
2128,,,,CSU BOOKO,-7.790726227633339,8.874528101686199,,15
2129,,,,CSR NIOKOSSO,-7.671254751978899,8.685327939163642,,15
2131,,,,DISPENSAIRE RURAL MAHANDOUGOU,-7.829829367963662,9.033488636490262,,15
2132,,,,DISPENSAIRE RURAL MOAMBASSO,-7.730655682129731,8.935745483302151,,15
2133,,,,MR BOUNTOU,-7.186417205491247,8.491961245146634,,15
2134,,,,CMS BOROTOU KORO,-7.193260262903455,8.477144840725687,,15
2135,,,,CSR PELEZI,-6.819270698082448,7.280810420764283,,63
2136,,,,CSR BAZRA NATTIS,-6.516046733397378,7.606933142229846,,63
2137,,,,CSR GBABO,-6.766944197106085,7.1211342044670545,,63
2139,,,,DISPENSAIRE RURAL PETIONARA,-5.1166903534581865,8.428899090414335,,60
2140,,,,CSR KANAWOLO,-5.309249640035631,8.781947836815643,,60
2142,,,,DISPENSAIRE RURAL TENINDIERI,-5.587876535037162,8.767754905824328,,60
2143,,,,DISPENSAIRE RURAL ARIKOKAHA,-5.19760814003555,8.787398231362852,,60
2144,,,,CSR NIEDIEKAHA,-5.15949479428362,8.911041176187767,,60
2145,,,,DISPENSAIRE RURAL OUEREGUEKAHA,-5.191323176237632,8.451988435825333,,60
2146,,,,DISTRICT SANITAIRE BONGOUANOU,-4.199807082283406,6.6450013069768685,,84
2147,,,,CSR N ZUEKOKORE,-4.2327147398013105,6.613205660646216,,84
2148,,,,CSU KANGANDI,-4.185236298606759,6.644179625085001,,84
2149,,,,MINABO,-5.1283225486480015,7.11415329044539,,21
2150,,,,CSR AMANSALEKRO,-5.578544119798634,7.252234804705103,,21
2151,,,,CSU YAKPABO-SAKASSOU,-4.900501355281732,7.009157139190064,,21
2152,,,,DISPENSAIRE RURAL DUIBO-KPATO,-5.33930974090413,7.328314612727551,,21
2154,,,,HG TAABO,-5.07078,6.27005,,13
2155,,,,CSU MOROKRO,-4.69734,6.27005,,13
2156,,,,CSR ETICOON,-4.95942,5.93488,,13
2157,,,,CSR AFFIKRO,-4.74141,6.13447,,13
2158,,,,CSR BOTINDE,-4.7508,5.78928,,13
2159,,,,CSR LELEBLE,-5.21872,6.21872,,13
2160,,,,CSR DADIASSE,-2.95663,7.83208,,51
2161,,,,CSR AHUITISSO,-2.95663,7.83208,,51
2162,,,,CSR DIEDOU,-3.13482,7.62605,,51
2163,,,,DR DIEDOU,-3.13482,7.62605,,51
2164,,,,DR NZUASSE,-3.0983107505770215,7.447035020908115,,51
2165,,,,DR ASSUETIA,-2.984,7.58518,,51
2167,,,,DR PRITI 2,-3.0741438087811157,7.548666372093098,,51
2168,,,,DR AROSSUA,-3.0649638313997385,7.4082466841775725,,51
2169,,,,CSR NGUESSAN BRINDOUKRO,-3.0816758100368764,7.1093288525746585,,49
2170,,,,CSR DEIMBA,-3.10204,7.20445,,49
2172,,,,CSU TIENKOIKRO ,-3.0608,7.22832,,49
2173,,,,CSR PENGAKRO ,-3.286242008245439,7.34153213113982,,49
2174,,,,CSR NDAKRO,-3.3763299588565157,7.36165331455576,,49
2175,,,,CSR KOTOKOU AYERA,-3.166650842236876,7.300854057589893,,49
2130,,2023-01-03 14:45:04.999855 +00:00,,CSR KOFFINA,-7.879214701109221,8.846346159916992,,15
2166,,2023-02-24 09:03:55.210861 +00:00,,CSR SOUROMANI,-3.127483911512899,7.495939879108612,,51
2176,,,,CSR AMEYAOKRO ,-3.141493900187269,7.318147238773035,,49
2177,,,,FSU COM TANKESSE,-3.2031198120235884,7.345701101824872,,49
2178,,,,CSU TANKESSE,-3.2031198120235884,7.347063119819857,,49
2179,,,,DR KOUAKOUKRAKRO,-3.5173392432219277,7.577481095431056,,49
2180,,,,DR DOMORROSSI,0,0,,49
2181,,,,CSU KRAKRO ,0,0,,49
2182,,,,CSR YAKASSE BINI ,-3.5069073636672132,7.778580811525252,,49
2183,,,,CSR MISSOUMIHIAN ,-3.4992431749816464,7.728558806906278,,49
2184,,,,DR KOTRONOU,-3.823809130019381,7.735835088040269,,49
2185,,,,CSR DJORODJORO ,-3.7133909777426863,7.894630679543121,,49
2186,,,,CSU KOUASSI DATEKRO,-3.5281734319882303,7.824062321346684,,49
2187,,,,DR TAKIKRO,-2.965397042965079,7.241427288023566,,49
2188,,,,CSU KOKOMIAN,-3.0580058158423062,7.255560928858547,,49
2189,,,,CSR OUATE,-3.385698396792496,7.629938060268501,,49
2190,,,,DR NGORATO,-3.2360996098369745,7.552263551873977,,49
2191,,,,CSR KOTOGWANDA ,-3.225413982197,7.654649725567,,49
2192,,,,DR KORIA,-3.2237968361928235,7.500194708792764,,49
2193,,,,DR DOKANOU,-3.3069924230165575,7.583478578316083,,49
2194,,,,DR ASSINDI,0,0,,49
2196,,,,CSR ADOUKRO ,-3.419124285711675,7.430127026485016,,49
2197,,,,CSR ABOKRO,0,0,,49
2198,,,,DISPENSAIRE RURAL LAFIGUE,-4.620737141990224,8.294173059543564,,58
2199,,,,CSR KAFOUDOUGOU,-4.390649932357897,8.463372369653793,,58
2200,,,,CSR KOGBERA,-4.590237049026126,8.016464901778901,,58
2201,,,,CSR MBORLA DIOULASSO,-4.482987229861204,8.470666615165847,,58
2202,,,,CSU SATAMA SOKORO,-4.527901940966176,7.897997179916979,,58
2203,,,,CSU SATAMA SOKOURA,-4.366490063450146,7.90084864735627,,58
2204,,,,CSU BASSAWA,-4.087651799038554,8.043230848248406,,58
2195,,2022-09-01 14:29:55.299791 +00:00,,CSR AKRASSIKRO,-3.2886283758283885,7.658518963144041,,49
2205,,,,CSR TENDENE,-4.232678846103917,8.467126379103675,,58
2206,,,,CSR FENESSIGUEDOUGOU,0,0,,58
2207,,,,SSSU SAJ DABAKALA,0,0,,58
2208,,,,DISTRICT SANITAIRE ADZOPE,-3.870957227824965,6.116878675824204,,73
2209,,,,PMI TIASSALE,-4.824183083116957,5.8907010982086465,,13
2210,,,,DISTRICT SANITAIRE AGBOVILLE,-4.216620874397721,5.9244307110468775,,11
2211,,,,DISTRICT SANITAIRE SIKENSI,-4.578983759522965,5.661154833341712,,12
2212,,,,DISTRICT SANITAIRE DE TOUMODI,-5.289278632067541,6.826210017335813,,22
2213,,,,FSU KOKO BOUAKE,7.688391558696889,-5.032955538721516,,38
2214,,,,MINISTERE DE LA SANTE,-4.023351196427358,5.333193946504897,,6
2216,,,,CSU CHECHI,-4.410635236540753,6.241924221991553,,11
2217,,,,PMI AGBOVILLE,-4.2163164425090045,5.924528456159953,,11
2219,,,,CSR EROBO,-3.8635092412309042,6.896529676847105,,83
2220,,,,DISPENSAIRE RURAL DALOSSO,-3.9362266045474748,6.82141703477387,,83
2221,,,,CSR BROU ATTAKRO,-3.809706067618461,6.6817115730927386,,83
2222,,,,DISPENSAIRE RURAL KOUADIOKRO,-3.815885591403585,6.6154506678675595,,83
2223,,,,DISPENSAIRE RURAL YAFFO-AGNI,-3.9341328366514534,6.551191663348813,,83
2224,,,,DISPENSAIRE RURAL KOTOBI,-4.125890516207371,6.696882760555229,,83
2225,,,,CSR NZANSOUENOU,-4.113623955299258,6.703948287935365,,83
2226,,,,CSU GUEZON,-7.110141477314105,6.741306941423575,,56
2227,,,,CSU GBAPLEU,-7.15829,6.47934,,56
2228,,,,CSU GUEHIEBLY,-7.4330453228109015,6.896452825051883,,56
2229,,,,CSU BAGOHOUO,0,0,,56
2230,,,,CSU KOKOMAN,-7.35885290747051,6.732305004539688,,56
2232,,,,CSR FENGOLO,-7.399960666132781,6.78298604387785,,56
2233,,,,HG GUEYO,-6.07285616985704,5.692301368087061,,89
2235,,,,SSSU SAJ 2 NIMBO,-5.024625964160899,7.68049708056364,,114
2236,,,,CSU NIMBIO,-5.0298387364745505,7.670192469734011,,114
2237,,,,CSU AIR FRANCE 3,-5.016294714212692,7.662131422350295,,114
2238,,,,SAJ 1 COMMERCE ,-5.0309813885312815,7.676296894246347,,114
2239,,,, CSU DABOUYO ,-6.03772,5.54958,,89
2240,,,,CSU DJEBONOUA,-5.072064004621402,7.522115624524336,,114
2241,,,, CSR NIOROUHIO ,-6.11992,5.7683,,89
2242,,,,CSR BALEKO  ,-6.02911,5.43243,,89
2243,,,,CSR TAGOURA,-6.419781362726714,6.897301818850767,,61
2245,,,,DDS BOUAKE SUD,-5.036790507596382,7.70268994237824,,114
2246,,,,CSR NIOUBOUA,-6.43708,6.70052,,61
2247,,,,CSR DERAHOUAN,-6.41052,6.90033,,61
2248,,,,CSR SIKABOUTOU,0,0,,61
2250,,,,CSR KIBOUO,-6.51498,6.82801,,61
2251,,,,FSU AHOUGNANSSOU BOUAKE,-5.057286884535037,7.683611661918997,,114
2252,,,,HG BONON,-6.042019603405538,6.9371024449519085,,61
2253,,,,MATERNITE MUNICIPALE BEFLA,-6.137671035795423,7.214740765317394,,61
2254,,,,CSR GOHOUO ZAGNA,-7.437126557710662,7.056399770071781,,55
2255,,,,CSR GLOPLOU,-7.355590144111809,7.11031356880851,,55
2256,,,,CSR BLENIMEOUIN,-7.183530678516246,7.138580536695827,,55
2257,,,,CSU ZOU,-7.800979566145237,6.979539295447189,,55
2258,,,,CSU BANGOLO,-7.483939041345902,7.014598919913494,,55
2259,,,,CSU GUINGLO TAHOUAKE,-7.185500394592346,7.075861671725923,,55
2260,,,,PMI SOKOURA,-5.021517675581577,7.69737330149236,,38
2266,,,,HOPITAL GENERAL MEAGUI,-6.5586912801805015,5.406548016138728,,92
2269,,,,SSSU-SAJ MEAGUI,-6.556817954568988,5.405129166305895,,92
2270,,,,CSU OUPOYO,-6.588541523811565,5.563106811588692,,92
2273,,,,CSR TOUADJI 2,-6.576925755125799,5.51101938938004,,92
2276,,,,DR IPOU-NDRIKRO,-6.67932,5.35758,,92
2277,,,,DR ADAMAGUI,-6.822532271426516,5.859043330355053,,92
2278,,,,CSR DAHILI,-6.7845,5.50255,,92
2279,,,,CSR AMARAGUI,-6.71627419180737,5.813490412708473,,92
2280,,,,CSR SARAKAGUI,-6.804155865418628,5.819329731858024,,92
2284,,,,CSR POGREAGUI,-6.68278,5.4423,,92
2285,,,,CSR TOUAGUI 1,-6.56,5.43114,,92
2286,,,,CSR GNITITOUAGUI,-6.52579,5.32073,,92
2288,,,,CSR WALEBO,-6.83191,5.58322,,92
2289,,,,CSR TAKOREAGUI,-6.81008,5.71736,,92
2296,,,,CSU GOGO,-3.50872,9.78628,,30
2297,,,,SSSU SAJ TEHINI,-3.65665,9.62387,,30
2298,,,,CENTRE DE SANTÉ RURAL DE BOLE,-4.23058,9.68183,,30
2299,,,,CENTRE DE SANTE RURAL DE KOINTA,-3.75606,9.62249,,30
2300,,,,CENTRE DE SANTE RURAL DE KOUEBONOU,-3.5192,9.60683,,30
2301,,,,CENTRE DE SANTE RURAL DE GOVITAN,-3.71023,9.87741,,30
2302,,,,CSU SIEMPURGO,-6.19254,9.51776,,17
2303,,,,CENTRE DE SANTE RURAL DE LAGO-TADJOTE,0,0,,30
2304,,,,CSU KASSERE,-6.218248270322795,9.826359953240448,,17
2305,,,,PMI BOUNDIALI,-6.482265965483917,9.518261396507652,,17
2306,,,,CSU BELE,-6.4955023623883426,9.522436867269725,,17
2307,,,,CSR NEGUEPIE,-6.518134529842405,10.347822162885345,,19
2308,,,,CSU KANAKONO,-6.2425825183359755,10.358296790678958,,19
2309,,,,CSR LOMARA,-6.339479797392489,10.348202519719473,,19
2310,,,, CSU SANHALA,0,0,,18
2311,,,,CSR BOLONA,-6.436618843764397,10.29368708747956,,19
2312,,,,CSU DEBETE,-6.638275134316649,10.620115917319955,,19
2313,,,,CSR DIAMAKANI,-6.532600519752235,10.56492843373004,,19
2314,,,,CSU BLESSEGUE,-6.41582,10.2004,,18
2315,,,,CSU PAPARA,-6.2518887860077985,10.622976201117185,,19
2316,,,,CSR SAN,-6.440616972177026,10.386347322647666,,19
2318,,,, CSR ZAGUINASSO,-6.36419,10.04932,,18
2319,,,,CSR BOYO,-6.37785,9.95444,,18
2320,,,,CSR ZELESSO,-6.496850412648254,10.50531417961291,,19
2321,,,,CSR DOUGBA,-6.4101051531278435,10.27258964585536,,19
2322,,,, CSU GBON,0,0,,18
2323,,,,CSR KOULOUSSON,-6.369406770452708,10.692230530504178,,19
2324,,,,CSU KOLIA,-6.46187,9.76691,,18
2325,,,,CSU TENGRELA,-6.407770717937271,10.481255369472377,,19
2327,,,,CSR ZANIKAHA,-6.250784193711823,10.301710337557346,,19
2328,,,, HG KOUTO,-6.411423739814112,9.890477212736258,,18
2329,,,,DDS KOUTO,-6.410608348266816,9.893605735118259,,18
2330,,,,CSR SISSINGUE,-6.218442347480567,10.447460824440325,,19
2331,,,,CSR DOUBASSO,-6.251333684160209,10.698310115746626,,19
2332,,,,HG BUYO,-6.99707,6.26002,,91
2333,,,,CSR M BELE,-6.57616,10.2802,,19
2334,,,,CSU DAPEOUA,-6.86006,6.15045,,91
2335,,,,SSSU-SAJ BUYO,-6.86006,6.15045,,91
2336,,,,CSR POUROU,-6.304206724965525,10.402367850457495,,19
2337,,,,CSR POPO,-6.31623972509888,10.316395735865498,,19
2338,,,,CSR ZANASSO,-6.39362,10.59492,,19
2339,,,,PMI TENGRELA,-6.408865100562917,10.487329874962471,,19
2340,,,,CSR AMANIKRO,-6.95092,6.37979,,91
2341,,,,CSR BAGLO2,-7.114,6.343,,91
2342,,,,CSR BINDOUGOU,0,0,,91
2343,,,,CSR KOREAHINOU,-7.12388,6.47921,,91
2344,,,,CSR LOGBOGBA,-6.73635,5.98004,,91
2345,,,,CSR NOUKPOUDOU,-6.90574,6.39637,,91
2346,,,,CSR SAGBOYA,-6.91453,5.96661,,91
2347,,,,CSR WONSEALY,-7.03662,6.172,,91
2348,,,,CSR BOUGOULA,-6.5512354827891865,10.450439180725484,,19
2349,,,,HG TOULEPLEU,-8.417112118141537,6.577034128585691,,34
2350,,,,CSU BAKOUBLY,-8.41146238077407,6.468554372752727,,34
2351,,,,CSR GAMA,-6.22429,9.06076,,95
2352,,,,CSU MEO,-8.294942696209414,6.524341472592683,,34
2353,,,,CSU PEHE,-8.305835875768489,6.565037313801482,,34
2354,,,,CSUI TOULEPLEU,-8.395927319791207,6.587774780017651,,34
2355,,,,CSU TIOBLY,-8.499854559169739,6.536831493825021,,34
2356,,,,CSR ZIOMBLY,-8.372228160223514,6.5491915940983985,,34
2357,,,,CSR DIAIBLY,-8.237473358416967,6.599682878980279,,34
2358,,,,CSR DENAN,-8.276126934956082,6.534461149600373,,34
2360,,,,CSR BOHOBLY,-8.365474062584006,6.472196585235762,,34
2361,,,,CSR PAHOUBLY,-8.36187,6.40916,,34
2362,,,,DR POYABLY,-8.36962,6.50992,,34
2363,,,,DR PEHEKANHOUEBLY,-8.48652,6.48512,,34
2271,,,,CSR NICLA,0,0,,32
2274,,2023-03-07 14:06:59.677907 +00:00,,DR GNIPI 2,-6.6436698620651615,5.666738056175446,,92
2365,,,,DR KOARHO,-8.41606,6.66503,,34
2366,,,,DR MARAH,-6.02699,9.72385,,95
2367,,,,DR KLAON,-8.51671,6.59952,,34
2368,,,,CSR TOYEBLY,-8.46619,6.63142,,34
2369,,,,CSR SAHIBLY,-8.32443,6.58999,,34
2370,,,,PMI TOULEPLEU,-8.415002580157381,6.582609904539697,,34
2371,,,,DR M BALLA,-6.07316,9.35828,,95
2372,,,,DR NOUFRE,-6.8053,8.955,,95
2373,,,,CSR ODIA,-6.16789,9.37426,,95
2374,,,,CM TANGAFLA,-5.93996,9.5558,,95
2375,,,,DR TARATO,-5.99581,9.53859,,95
2376,,,,CSR ZANGAHA,-6.23877,9.28771,,95
2377,,,,CSR NEZOBLY,-8.472380731492724,6.600809591771577,,34
2378,,,,HG MINIGNAN,-7.83502655350927,9.997243464357691,,36
2379,,,,CSR SOKOURABA FOLO,-7.62185,10.05672,,36
2380,,,,HG BLOLEQUIN,-8.007304395802361,6.572242353529985,,31
2381,,,,CSR BLEDY-DIEYA,-8.062900883297957,6.587847531848647,,31
2382,,,,CSU DOKE,-8.113496456656645,6.591388778547932,,31
2383,,,,CSR GUIBOBLY,-8.218266869407346,6.612247495907315,,31
2384,,,,CSR NIAMINA,-7.68203,10.07263,,36
2385,,,,CSR DIBOKE,-8.117592333069823,6.438130099224532,,31
2386,,,,CSR TINHOU,-8.152699801867639,6.43811331349496,,31
2387,,,,DR GOUENZOU,-7.83769,10.10716,,36
2388,,,,CSR PETIT-GUIGLO,-8.21874864455973,6.353693935079078,,31
2389,,,,CSU ZEAGLO,-7.835872717370681,6.552844300157811,,31
2390,,,,CSU SOKORO (MINIGNAN),-7.82148,10.20721,,36
2391,,,,CSR DANDROU,-7.91971439554371,6.541436786907666,,31
2392,,,,CSR TOMEPLEU,0,0,,31
2393,,,,CSR DEPOUTA,0,0,,31
2394,,,,CSR PETIT-BOUAKE,0,0,,31
2395,,,,CSR CHANTIER COLONEL,0,0,,31
2396,,,,CSR NABAGALA,-7.65879,10.16891,,36
2397,,,,DR KENINGOUARA (MINIGNAN),0,0,,36
2398,,,,CSU TIENKO,-7.65879,10.16891,,36
2399,,,,CSU KOUBAN,-7.41662,10.24468,,36
3236,2022-09-05 16:19:02.930736 +00:00,2022-09-05 16:19:02.930736 +00:00,,CSR MAHALE,-6.581025160792064,10.129764748977768,"",18
3238,2022-09-05 16:19:02.984764 +00:00,2022-09-05 16:19:02.984764 +00:00,,CSR ASSINIE FRANCE,-3.2617267134901518,5.287104165522899,"",101
3240,2022-09-05 16:19:03.031005 +00:00,2022-09-05 16:19:03.031005 +00:00,,CSR BONDOUKROU,-3.2617267134901518,5.287104165522899,"",101
2403,,,,CSR KABANGOUE,-7.55463,10.14192,,36
2404,,,,DR NAGUINA,-7.60328,10.32778,,36
2405,,,,CSU KIMBIRILA NORD,-7.518692901935823,10.355512677535021,,36
2408,,,,DISTRICT SANITAIRE TOUBA,-7.685925409526119,8.286266384231132,,14
2409,,,,CSR KOTOULA,-7.39501,10.11737,,36
2410,,,,SSSU TOUBA,-7.679889670135716,8.282961607095,,14
2411,,,,CSUI TOUBA,-7.686115744620526,8.280400506020356,,14
2412,,,,CSR KAMASSELA,-7.730551830808503,8.257877940223842,,14
2413,,,,CSU FOUNGBESSO,-7.676242922101947,7.951742375602612,,14
2414,,,,CSR DIOMAN,-7.542502893622271,8.134763130808167,,14
2415,,,,CSR FOUENAN,-7.672521774026442,8.118419622108162,,14
2416,,,,CSR BAKANDESSO,-7.672995569067384,7.888315367954984,,14
2417,,,,CSR SILAKORO,-7.64478904232734,8.194351112388935,,14
2418,,,,CSR TIENKO,-7.5756112830194295,8.23131359185003,,14
2419,,,,CSR MADINA,-7.4173892598451605,8.29082609401459,,14
2420,,,,CSU GUINTEGUELA,-7.316525632965367,8.28725051031627,,14
2421,,,,CSR DOH,-7.27081401041217,8.191215327216758,,14
2422,,,,CSR OUEBASSO,-7.161441076237284,8.250124019586215,,14
2423,,,,CSR SOKOURALA,-7.513542329187745,8.328560017531684,,14
2424,,,,PMI AGNIBILEKROU,-3.206017689738809,7.132393323935981,,69
2425,,,,PALAZZOLO,0,0,,69
2426,,,,CSR ASSUAME,-3.2129,7.16585,,69
2427,,,,DR AYENOU,-3.22582,7.15943,,69
2428,,,, CSR AGNANFOUTOU,-3.24823,7.20025,,69
2429,,,,CSR YOBOUAKRO,-3.31557,7.23822,,69
2430,,,,CSR AKA N\\'GUESSANKRO,-5.7416623801142075,7.1443643741045175,,80
2431,,,,CSR ANGOVIA,-5.5431592068194835,7.0354511621577025,,80
2432,,,,CSR NIANDA,-3.28112,7.04938,,69
2433,,,,CSR BANNONFLA,-5.5009486192842765,6.830651622377517,,80
2434,,,,CSR BLANFLA,-5.7664487325557525,6.854645438604384,,80
2435,,,,CSU AKOBOISSUE,-3.23204,6.9652,,69
2436,,,,CSR BLANOUFLA,-6.024651837495789,6.797502228439897,,80
2437,,,,CSR BOUAFLA,-5.848094394458297,7.24843196054825,,80
2438,,,,CSR BOUNANTINFLA,-5.914199255565661,6.757410543686663,,80
3242,2022-09-05 16:19:03.073892 +00:00,2022-09-05 16:19:03.073892 +00:00,,CSR ABOU-CARREFOUR,-3.2617267134901518,5.287104165522899,"",101
2440,,,,CSR MANZANOUAN,-3.2865,6.84347,,69
2441,,,,CSR BOZI SATMACI,-5.585746478201642,6.8806690211161,,80
2442,,,,CSR DANANGORO,-5.927683521236988,7.175806205255219,,80
2443,,,,CSR SIAKAKRO,-3.24228,6.91099,,69
2444,,,,CSU DAME,-3.14946,7.06663,,69
2445,,,, DR KOTOKOSSOU,-3.12916,7.07177,,69
2446,,,,CSR DIACOHOU NORD,-5.7889065017345125,7.379471271357146,,80
2447,,,,CSR DIACOHOU SUD,-5.682997631215768,7.227856967235334,,80
2448,,,,CSR DUONFLA,-5.498972180578157,6.844125605706139,,80
2449,,,,CSR GOBAZRA,-5.967911076360722,6.945690281798398,,80
2450,,,,CSR KLAN,-5.642012462931672,6.937300198303436,,80
2451,,,,CSR KONEFLA,-5.776294813385532,6.814817936928686,,80
2452,,,,CSR KPANGBAKOUAMEKRO,-5.7794438925035205,7.188201453106078,,80
2453,,,,CSR BLE,-5.854,6.821,,80
2454,,,,CSR N\\'DENOUKRO,-5.835,6.917,,80
2455,,,,CSR N\\'DOUFFOUKANKRO,-5.81981298021094,6.859908785657232,,80
2456,,,,CSR NANGREKRO,-5.864470829418399,6.926355909082974,,80
2457,,,,CSU DUFFREBO,-3.44489,7.08959,,69
2458,,,,CSR SIETINFLA,-5.734125531261677,6.827691174293633,,80
2459,,,,CSR TIBEITA,-5.826149527511486,7.1829078309993655,,80
2460,,,,CSR YOHO,-5.577268242798599,6.923278116848121,,80
2461,,,,CSU BONON,-6.053550448044512,6.927237754363048,,80
2462,,,,CSU DEHITA,-5.7503591465840636,6.9976870109911555,,80
2463,,,,CSR AMORIAKRO,-3.52938,7.09882,,69
2464,,,,CSU GARANGO,-5.807056042591507,6.962951645428704,,80
2465,,,,CSU GBEGBESSOU,-5.598741446138331,7.066851908385638,,80
2466,,,,CSU PAKOUABO,-5.792534088204673,7.159570261569737,,80
2467,,,,CSU ZAGUIETA,-6.061838010562313,6.788956735153986,,80
2468,,,,CSR BANGOUA,-3.47284,7.33732,,69
2469,,,,DR KOUAKOUGNANOU,-5.510973739731221,6.998373122105274,,80
2470,,,,CSR COMOE N DANOU,-3.57382,7.24857,,69
2471,,,,MUD BOUAFLE,-5.744480308375156,6.9908397797005835,,80
2472,,,,PMI BOUAFLE,-5.741531305968308,6.978838636112421,,80
2474,,,,DR KOKONOU,-3.61826,7.13233,,69
2475,,,,DR E.F.A.P,-5.742152425355826,6.979066719957833,,80
2476,,,,DR N GRA,-3.41109,7.07298,,69
2477,,,,CSR OUANZANOU,-5.651039317038772,6.994695309438888,,80
2478,,,,CSR N GUESSANKRO (AGNIBILEKROU),-3.34372,7.1218,,69
2479,,,,DISTRICT SANITAIRE AGNIBILEKROU,-3.20305,7.13159,,69
2480,,,,DIOULABOUGOU ( SIKENSI),-5.50465,6.79162,,12
2481,,,,CSR BAKANOU A,0,0,,12
2482,,,,CSR BAKANOU B,0,0,,12
2483,,,,CSR BECEDI,0,0,,12
2484,,,,CSR GRIHIRI,-6.34806358051015,5.4306632569266515,,42
2486,,,,CSR BRAFFOUEBY,-4.56682,5.64879,,12
2489,,,,CSR KOKOLOPOZO,-6.083172992982601,5.138807127222188,,42
2490,,,,CSR ELIBOU,-4.50938,5.68848,,12
2493,,,,CSR LOUHIRI-KODIA,-6.3901389033110085,5.3613154455672705,,42
2494,,,,CSR LIPOYO,-6.013735168799738,5.002108821702927,,42
2495,,,,CSR KATADJI,-4.54006,5.66664,,12
2496,,,,CSR SOUKOUKRO,0,0,,12
2497,,,,CSU GOMON,-4.44093,5.72346,,12
2498,,,,CSR SAHUYE,-4.5299,5.73108,,12
2499,,,,CSR YAOBOU,-4.41375,5.70996,,12
2500,,,,CARREFOUR MARCHE SIKENSI,-4.574132130855506,5.663445708436788,,12
2501,,,,CMA SOUBRE,-6.602409754793472,5.787354418714468,,90
2502,,,,PMI SOUBRE,-6.587827813194185,5.777173925265203,,90
2503,,,,DISPENSAIRE URBAIN SOUBRE,-6.601957524779742,5.789000414316061,,90
2504,,,,SSSU SAJ SOUBRE,-6.597031389743769,5.78345587865017,,90
2505,,,,CSU YABAYO,-6.601072722432925,5.948051655296133,,90
2506,,,,CSU YACOLI,-6.552666120199745,5.957003190643687,,90
2507,,,,CSU OKROUYO,-6.404219417656838,5.769047580728277,,90
2508,,,,CSU GRAND ZATTRY,-6.538877711556322,6.114189935191573,,90
2509,,,,CSU MAYO,-6.53887042457689,6.1142285134572365,,90
2510,,,,CSR BAKAYO,-6.429003573534181,5.988439676067348,,90
2511,,,,CSR LILIYO,-6.357719604954636,5.995650989515773,,90
2512,,,,CSR LESSERI,-6.493380423206507,5.912170100113143,,90
2513,,,,CSR KPADA,-6.494152879935584,5.784627956850751,,90
2514,,,,CSR OTTAWA,-6.279718151466211,5.725151090047176,,90
2515,,,,CSR ZAKOUEOA,-6.508878552443133,6.255863230813599,,90
2516,,,,CSR KONEDOUGOU,-6.665680555471816,6.03237918330455,,90
2517,,,,DR PETIGOA 1,-6.714163608389957,6.111377234530274,,90
2518,,,,DR KOTABLEOUA,-6.5181375540189865,6.210079520330415,,90
2519,,,,DR KODA TCHAD,-6.5131510390840734,5.866275680540901,,90
2520,,,,DR PARC SOU,-6.551098961450183,6.062200206581074,,90
2521,,,,DR MABEHIRI 1,-6.418484879035344,5.680960193939646,,90
2522,,,,CSR GBALEBOUO,-6.346060373866759,5.737790667699036,,90
2523,,,,DR GRIPAZO,-6.595374699811396,5.830788245403678,,90
2524,,,,CSR KOZIAYO 2,-6.344493294024292,5.929708749398175,,90
2525,,,,DR GUIMEYO,-6.3093156777027595,5.831255930035212,,90
2526,,,,CSR OBROUAYO,-6.64926406428346,5.891993723581873,,90
2527,,,,DR NENEFEROUA,-6.441411659312051,5.782985500555448,,90
2528,,,,DR KIPIRI,-6.4989058635593855,6.13247675552207,,90
2529,,,,DR KOREGUHE,-6.6625673801276255,6.171714835266056,,90
2530,,,,DR GABAGUHE,-6.566397021298605,6.197750779479418,,90
2531,,,,DR GBAZOA,-6.619146439509956,6.228561607643716,,90
2532,,,,CSR MAYO 2,-6.633496375258537,5.8141267987200385,,90
2533,,,,DR GADAGO,-6.440402112640961,6.150887743635397,,90
2534,,,,DR KOMEAYO,-6.38908329871541,6.020181393026317,,90
2535,,,,CSR BAGOLEAOUA,-6.529650273117778,6.16953010949563,,90
2536,,,,DR OUREYO,-6.594332954157533,6.019442826101144,,90
2537,,,,DR GBADAKOUAMEKRO,-6.352815326389067,5.59923484933926,,90
2538,,,,DR KAGNENANKO,-6.349900635387386,5.81032588644234,,90
2539,,,,DR BLESSEOUA,-6.460246827045703,6.2492042056422115,,90
2540,,,,DR BOGREKO,-6.297989935750128,5.613470860868498,,90
2541,,,,CSR MAHIEOUA,-6.4615283176200675,6.200596139643702,,90
2542,,,,SIPEFCI OKROUYO,-6.407198085058505,5.763070976662239,,90
2543,,,,SIPEFCI OTTAWA,-6.274025526008349,5.719329690440669,,90
2545,,,,DR KOUAKOUKRO,-6.647988365760387,6.122247730220641,,90
2546,,,,DR MAMBERI 2,-6.601249110375027,5.78704824449914,,90
2547,,,,CSR PETIGOA 2,-6.772699902319611,6.107593674434241,,90
2548,,,,DR BALEYO,0,0,,90
2549,,,,CSR GNONBOYO,0,0,,90
2550,,,,CSR TOLLAKRO,0,0,,90
2551,,,,CSR ROA,0,0,,90
2552,,,,DR DOBRE,-6.342934196511624,5.56561984132969,,90
2554,,,,CSU SOKOURA,-5.021366213613803,7.697360547168644,,38
2555,,,,CSR AFOTOBO,-5.462595637782607,7.667369079334672,,37
2556,,,,CSR SEOULE,-5.551520946356662,7.710561641214591,,37
2557,,,,CSR KONGODJAN ,-5.479399408262995,7.858212498304357,,37
2558,,,,CSR ANDOKEKRENOU ,-5.576831853915131,7.508396945821313,,37
2559,,,,CSR GOLIKPAGBASSOU ,-5.4730385870990705,8.015580088954938,,37
2560,,,,CSR BOUREBO ,-5.720383668230392,7.714460787463667,,37
2561,,,,CSR DIEVIESSOU ,-5.603032064615141,7.583228524739059,,37
2562,,,,CSR KOUEBODAN ,-5.528851631899681,7.742466331527949,,37
2563,,,,CSR FARI M\\'BABO ,-5.518725907595763,7.599485643977348,,37
2564,,,,CSR ABOUAKRO ,-5.528693622119217,7.565441489752471,,37
2565,,,,CSR ASSENGOU ,-5.5178054159211465,7.668326589863041,,37
2566,,,,CSR LINGUEBO ,-5.6590027686749735,7.4976746492117226,,37
2567,,,,CSU KONDROBO ,-5.746299026461671,7.830434627620262,,37
2568,,,,CSR DIANHOUN ,-5.5740853252477445,7.675180076516237,,37
2569,,,,SSU SAJ BASSAM,-3.7391043706136555,5.214700973210297,,102
2570,,,,DISPENSAIRE URBAIN BASSAM,-3.7654009750680597,5.2139617057020535,,102
2571,,,,CPMI,-3.7395095654694908,5.221916448598943,,102
2572,,,,CSU CAFOP 2,-3.7453302743990764,5.216387714617275,,102
2573,,,,CSR VITRE 2,-3.8006536374015236,5.276593096845706,,102
2574,,,,CSR AHOUAKRO,-4.866370735171987,6.1351294211232394,,13
2575,,,,CSR VITRE 1,-3.770615020191715,5.242116955752179,,102
